time,.header.seq,.header.stamp.secs,.header.stamp.nsecs,.header.frame_id,.pose.position.x,.pose.position.y,.pose.position.z,.pose.orientation.x,.pose.orientation.y,.pose.orientation.z,.pose.orientation.w
1970/01/01/01:02:54.610000,3487,174,610000000,world,21.203573552786864,4.489391477070743,-16.1253316232921,0.027175659787492656,-0.0014658551656760008,0.9678877917332196,-0.24990509678183737
1970/01/01/01:02:54.660000,3488,174,660000000,world,21.176254769927876,4.483574898021864,-16.12815242139806,0.02668908751910508,-0.0013218517980441728,0.9680570534922587,-0.24930199858626856
1970/01/01/01:02:54.710000,3489,174,710000000,world,21.15007423332367,4.478008668967539,-16.131125603149947,0.026140802689468116,-0.001098897855387249,0.9684108239611142,-0.24798372304086708
1970/01/01/01:02:54.760000,3490,174,760000000,world,21.12471620372068,4.472551591172638,-16.13412379601437,0.025685405740857384,-0.0009524070410437921,0.9687949804813177,-0.24652715600306283
1970/01/01/01:02:54.810000,3491,174,810000000,world,21.100079321295524,4.467170642048998,-16.137179038953636,0.025311664947113524,-0.0009453670570529159,0.9691274754663803,-0.24525570777230268
1970/01/01/01:02:54.860000,3492,174,860000000,world,21.07621759622896,4.4619076062038765,-16.140365009450672,0.02495736000632137,-0.0010322353718548287,0.9693550354191945,-0.24439083448260476
1970/01/01/01:02:54.910000,3493,174,910000000,world,21.053152057882716,4.456782780695915,-16.143570141801565,0.024575312413686136,-0.0010559331214306468,0.9694093540857139,-0.24421392924264518
1970/01/01/01:02:54.960000,3494,174,960000000,world,21.03087496718512,4.451855116411291,-16.146831858915174,0.024149083027307665,-0.0009876396482872676,0.9692321208604421,-0.24495906239458623
1970/01/01/01:02:55.010000,3495,175,10000000,world,21.00936938309008,4.447262236791679,-16.150220322983106,0.023696134083505845,-0.0009110311910338331,0.9688575850636374,-0.24648051265023393
1970/01/01/01:02:55.060000,3496,175,60000000,world,20.988473557996915,4.442814581149435,-16.153614975146983,0.02331499616769134,-0.0009061831227959329,0.9684550524430481,-0.248093533134948
1970/01/01/01:02:55.110000,3497,175,110000000,world,20.968109143640575,4.438468967286076,-16.15699053036705,0.022997191177764467,-0.0009829270962209867,0.9681053521523587,-0.24948384754571626
1970/01/01/01:02:55.160000,3498,175,160000000,world,20.94829472690464,4.434279312982823,-16.160263844852178,0.022679821028317254,-0.0010305900178996766,0.9678547515309013,-0.2504830204652517
1970/01/01/01:02:55.230000,3499,175,210000000,world,20.929034618448814,4.430264190611302,-16.16348595856929,0.02233865812483664,-0.0009847954714007731,0.9677727180692955,-0.2508305816518972
1970/01/01/01:02:55.320000,3500,175,260000000,world,20.91031590734313,4.426415471351636,-16.166709852152426,0.02196470087360604,-0.0007892901832383181,0.9679332666292626,-0.25024412138738555
1970/01/01/01:02:55.320000,3501,175,310000000,world,20.8921146296587,4.422712444267359,-16.170054671231128,0.021564514502299053,-0.00044529293653384594,0.968398742675172,-0.24847263151829554
1970/01/01/01:02:55.390000,3502,175,360000000,world,20.874400959978907,4.419125451422263,-16.173628392654955,0.02115817608457733,-5.235144747177775e-06,0.9691740118826989,-0.24546703698981903
1970/01/01/01:02:55.410000,3503,175,410000000,world,20.857139551676735,4.415598313927457,-16.177226566158737,0.020797892577100945,0.0003531744158851004,0.970027358015446,-0.24210379516595118
1970/01/01/01:02:55.470000,3504,175,460000000,world,20.840297033751863,4.412090131335525,-16.180777040150982,0.02050015302813509,0.0005413513880647159,0.9708201208792092,-0.23893041572929796
1970/01/01/01:02:55.540000,3505,175,510000000,world,20.823856407342287,4.408597980170563,-16.18436054762749,0.020253458426513233,0.0005532653791174731,0.9715236077011857,-0.23607492666197802
1970/01/01/01:02:55.600000,3506,175,560000000,world,20.807806951267487,4.405132809896138,-16.18810142158914,0.020045509149031727,0.00040448367489101983,0.9720888109617102,-0.23375490916547917
1970/01/01/01:02:55.670000,3507,175,610000000,world,20.79213955184327,4.401700814472114,-16.192003206403587,0.0198504863938171,0.00019948517797541246,0.972450186471276,-0.23226397315893277
1970/01/01/01:02:55.670000,3508,175,660000000,world,20.776849462448762,4.3983068376660786,-16.19591509152568,0.0196292126168101,0.00010337987973135523,0.9725446907798792,-0.23188684257739564
1970/01/01/01:02:55.730000,3509,175,710000000,world,20.761924049521735,4.39495177215762,-16.19987168377278,0.019371786219935856,0.0001480078230509947,0.9723180008807658,-0.23285707452333124
1970/01/01/01:02:55.760000,3510,175,760000000,world,20.747350162274678,4.391635000113072,-16.20391815550981,0.01907884658035897,0.00032725168096793913,0.9717400865003043,-0.23528088491817897
1970/01/01/01:02:55.810000,3511,175,810000000,world,20.733120064907254,4.388353817237056,-16.207900797049042,0.01878790002874767,0.0005079837792384556,0.9709995100785678,-0.2383415788153028
1970/01/01/01:02:55.870000,3512,175,860000000,world,20.719226724321068,4.385103952448108,-16.21168871617002,0.01852215850861784,0.0006072936519745627,0.9702811482477915,-0.24126967110175532
1970/01/01/01:02:55.920000,3513,175,910000000,world,20.705660595404293,4.381882898074251,-16.215322271840034,0.018284793305165702,0.0006056684609428001,0.9696286211910399,-0.24389677420307526
1970/01/01/01:02:55.980000,3514,175,960000000,world,20.69241454460197,4.378690897655687,-16.218832601280102,0.018078141599711786,0.0004926422045767038,0.9690884969003949,-0.24604963579589476
1970/01/01/01:02:56.040000,3515,176,10000000,world,20.67948418795178,4.375528320691319,-16.222167279324754,0.017871685287458895,0.0003954315639115165,0.9687348246746622,-0.24745360365413155
1970/01/01/01:02:56.090000,3516,176,60000000,world,20.666863639775787,4.372394523036929,-16.225310202125,0.017652190410197284,0.00036873085491714527,0.9686439267998566,-0.24782495291038154
1970/01/01/01:02:56.150000,3517,176,110000000,world,20.654540715171134,4.369289400961369,-16.22828871673501,0.017409511351444758,0.00045975650788728634,0.9688785215112575,-0.2469232838203333
1970/01/01/01:02:56.200000,3518,176,160000000,world,20.642304656485162,4.366270829281615,-16.231114494030603,0.017182994616003675,0.000690097844203825,0.9694389939468814,-0.24472904501969187
1970/01/01/01:02:56.250000,3519,176,210000000,world,20.62985604699058,4.363419253843902,-16.233841159549407,0.01700762408700216,0.0010326134737520091,0.9702278735590417,-0.24159376606491625
1970/01/01/01:02:56.300000,3520,176,260000000,world,20.617238483661893,4.360714436596975,-16.23653788026376,0.01685018176081733,0.0013757345307763556,0.9710715680608291,-0.23818939613889376
1970/01/01/01:02:56.350000,3521,176,310000000,world,20.60472261806615,4.358077886298017,-16.23911654329402,0.016679382548275497,0.00159954500566745,0.9718492836191271,-0.2350068287998722
1970/01/01/01:02:56.410000,3522,176,360000000,world,20.592330733624518,4.355505148023096,-16.241558691297932,0.016519012078509816,0.0016967696052018577,0.9725079571840625,-0.23227680991984306
1970/01/01/01:02:56.410000,3523,176,410000000,world,20.57999315950112,4.353017453180491,-16.24389785202041,0.016400696253889277,0.0016346604349998504,0.9729975793293566,-0.2302260968414792
1970/01/01/01:02:56.460000,3524,176,460000000,world,20.567687229060283,4.350621200400063,-16.24614527280948,0.016322589117558007,0.0014240070540114662,0.9732596088560656,-0.22912284708807973
1970/01/01/01:02:56.510000,3525,176,510000000,world,20.555342928139755,4.34825888417791,-16.24827471909921,0.016272191259837275,0.001222495242625581,0.9732629869903899,-0.22911324591024682
1970/01/01/01:02:56.560000,3526,176,560000000,world,20.542664395251983,4.345714622506576,-16.25027518608094,0.016307949384231375,0.0011069758678751787,0.9730551951869845,-0.22999220097848685
1970/01/01/01:02:56.610000,3527,176,610000000,world,20.529516773439795,4.342962051295042,-16.252157258547488,0.016391262966002285,0.0010995816648301051,0.9726660184177511,-0.2316267126950188
1970/01/01/01:02:56.660000,3528,176,660000000,world,20.515972071553122,4.340242043846657,-16.253929846889292,0.016434188332365218,0.0011901262536548013,0.9721954878512571,-0.2335903132730735
1970/01/01/01:02:56.710000,3529,176,710000000,world,20.5023096607817,4.3375041629866,-16.255638082142628,0.016367787290081454,0.0014650984249424352,0.9717848800462325,-0.23529576268892127
1970/01/01/01:02:56.760000,3530,176,760000000,world,20.4885778912077,4.33465439573736,-16.257460932016638,0.016255808734900536,0.0018219971199007988,0.9715168296313225,-0.23640532724956315
1970/01/01/01:02:56.810000,3531,176,810000000,world,20.47470382672161,4.331692346601594,-16.259252971928532,0.016179551489347174,0.002081370363197399,0.9714435770592852,-0.23670924485806566
1970/01/01/01:02:56.860000,3532,176,860000000,world,20.460562903021284,4.328606916138155,-16.260955649795406,0.016175119537999834,0.002214043263493754,0.9715896461507815,-0.23610807485759103
1970/01/01/01:02:56.910000,3533,176,910000000,world,20.445945356028485,4.325245078787886,-16.262587842836048,0.016276369196447975,0.0022688678592403585,0.9719276465389863,-0.23470530871202164
1970/01/01/01:02:56.960000,3534,176,960000000,world,20.4306887490884,4.321644247496917,-16.264102242916557,0.01645383311374459,0.002292186891060845,0.9724142071972435,-0.2326684914123055
1970/01/01/01:02:57.010000,3535,177,10000000,world,20.41482340305464,4.318087142381884,-16.26553054554033,0.016630912996763437,0.002258394123550994,0.9729280372334597,-0.2304980406726368
1970/01/01/01:02:57.060000,3536,177,60000000,world,20.39856902362253,4.314572344997609,-16.2669053956413,0.016742002225800544,0.0022828227550050575,0.9733432787152494,-0.2287298753149417
1970/01/01/01:02:57.110000,3537,177,110000000,world,20.38181376443091,4.311067847642612,-16.268232958334853,0.016834014152435496,0.002438566873411774,0.9736257056261716,-0.2275162734906211
1970/01/01/01:02:57.160000,3538,177,160000000,world,20.364376076590496,4.307564467136228,-16.269504253890428,0.016956430318034926,0.0026787465402203763,0.9737655888938667,-0.2269050058372975
1970/01/01/01:02:57.210000,3539,177,210000000,world,20.34607348789663,4.303971804746105,-16.27068760672491,0.017183719763076363,0.0027922845671910874,0.9737744092038482,-0.2268486784217544
1970/01/01/01:02:57.260000,3540,177,260000000,world,20.32675889866868,4.300214228491535,-16.271766894320596,0.01752024522307921,0.0027651320612327953,0.973662687607428,-0.2273023664924919
1970/01/01/01:02:57.310000,3541,177,310000000,world,20.306334900587355,4.296280390645159,-16.27274711236671,0.017926416749020502,0.0026739108628839755,0.9734683213066145,-0.22810287415050223
1970/01/01/01:02:57.360000,3542,177,360000000,world,20.284931642639286,4.292390610128135,-16.27363693777761,0.018299128675493076,0.002575661404325044,0.9733082040400785,-0.22875674373955635
1970/01/01/01:02:57.410000,3543,177,410000000,world,20.262893382098582,4.288496892398016,-16.274443078113052,0.018553601097700864,0.002622032393488264,0.9733075895697045,-0.22873833285754003
1970/01/01/01:02:57.460000,3544,177,460000000,world,20.24015648572422,4.284545385832741,-16.275238071279954,0.018759831581525808,0.0028353986012262717,0.9734779593789826,-0.22799274514145573
1970/01/01/01:02:57.510000,3545,177,510000000,world,20.216571763557262,4.280466857973213,-16.276219063938825,0.019001223528886276,0.0030730954998469135,0.9738010786685111,-0.2265854557832396
1970/01/01/01:02:57.560000,3546,177,560000000,world,20.19205841287062,4.276248916506872,-16.27719560597326,0.0193185247145541,0.0031666950557536397,0.9742285249037848,-0.22471214455180727
1970/01/01/01:02:57.610000,3547,177,610000000,world,20.166783775916464,4.272082085455459,-16.278091394156547,0.01963735994483897,0.0030652142830790777,0.9746315090100729,-0.22293138002655438
1970/01/01/01:02:57.660000,3548,177,660000000,world,20.14112253428626,4.26789019687425,-16.278934566017185,0.0198725184789684,0.002921452656725246,0.9748799499389903,-0.22182342376455563
1970/01/01/01:02:57.710000,3549,177,710000000,world,20.115186919851983,4.26355417287155,-16.279770773780402,0.02004101426584886,0.002861603667769213,0.9749231425123498,-0.22161912184080437
1970/01/01/01:02:57.760000,3550,177,760000000,world,20.088879676815527,4.259088455367309,-16.280660828714485,0.020184735921892412,0.0029081980503008597,0.9747850857338283,-0.22221196063838863
1970/01/01/01:02:57.810000,3551,177,810000000,world,20.06224434026084,4.254699237797932,-16.281798362028976,0.02028508878912357,0.002977147109304712,0.9745780130770149,-0.2231083776884339
1970/01/01/01:02:57.860000,3552,177,860000000,world,20.035589119542816,4.250300957197292,-16.283227633658527,0.020300610130942875,0.00309773661325653,0.9744472268937157,-0.22367586203105197
1970/01/01/01:02:57.910000,3553,177,910000000,world,20.00900997996977,4.245791196540233,-16.284748536319498,0.020301697309971382,0.0031432986507760646,0.9744730462264719,-0.22356261525135837
1970/01/01/01:02:57.960000,3554,177,960000000,world,19.982437914171147,4.2411264329282785,-16.2863496276979,0.020342735665678173,0.00306666066798334,0.9746908760883567,-0.2226083214259866
1970/01/01/01:02:58.010000,3555,178,10000000,world,19.955748728584048,4.236279628306,-16.288105707280362,0.020434540365886707,0.0029239336851086977,0.9750782405609946,-0.2208988568470085
1970/01/01/01:02:58.060000,3556,178,60000000,world,19.92898694514405,4.231490202643042,-16.28993468890247,0.020499533172662246,0.0027995475796397246,0.9755377668994927,-0.21885611032320593
1970/01/01/01:02:58.110000,3557,178,110000000,world,19.902402313593214,4.226715406529421,-16.291882061879566,0.020476184837616613,0.002793734655431159,0.975943978151743,-0.21703979453206465
1970/01/01/01:02:58.160000,3558,178,160000000,world,19.876030013837674,4.22187603299385,-16.29394629309095,0.020405647300394226,0.002901504417386202,0.9762249372066023,-0.21577780888296424
1970/01/01/01:02:58.210000,3559,178,210000000,world,19.849791462250835,4.216982533280788,-16.295940718474654,0.020358598577492865,0.002953880012256177,0.9763351509481033,-0.21528231483328597
1970/01/01/01:02:58.260000,3560,178,260000000,world,19.82358469596371,4.212110636088817,-16.29783327538168,0.020359342831698823,0.0028724069557827603,0.9762671279556696,-0.2155916077006009
1970/01/01/01:02:58.310000,3561,178,310000000,world,19.797397882859165,4.2073898380810855,-16.299653113499545,0.020383280829604368,0.0026448636215681345,0.9761174042691455,-0.2162691370536036
1970/01/01/01:02:58.360000,3562,178,360000000,world,19.771458872312177,4.202793991431306,-16.301352140314663,0.020352987269002754,0.0024118866553230933,0.975996774449568,-0.21681843781382773
1970/01/01/01:02:58.410000,3563,178,410000000,world,19.745797600904456,4.1982834306242305,-16.302951547580705,0.020281854420746342,0.0022467288254531047,0.9759693282224815,-0.21695038363597996
1970/01/01/01:02:58.460000,3564,178,460000000,world,19.720345275747643,4.1938626436080675,-16.304475064329374,0.02018551175805276,0.002209686316920445,0.9760860956707101,-0.21643381491753017
1970/01/01/01:02:58.510000,3565,178,510000000,world,19.695022489409073,4.189484558104663,-16.305970395640855,0.020081437012932746,0.002330873484128846,0.9763833117541634,-0.21509749288234156
1970/01/01/01:02:58.560000,3566,178,560000000,world,19.66973351548016,4.185006782229823,-16.30752294748322,0.020006148188545972,0.002511929779234121,0.9768101959754982,-0.2131555424607828
1970/01/01/01:02:58.610000,3567,178,610000000,world,19.64479788753139,4.180500183214697,-16.309019602734605,0.019880399888957914,0.002623005393619514,0.9772451716609998,-0.21116288501586428
1970/01/01/01:02:58.660000,3568,178,660000000,world,19.620278026255587,4.175976738824758,-16.31047388353111,0.019736173200041385,0.0026311309160517095,0.9776182612688179,-0.20944234493352568
1970/01/01/01:02:58.710000,3569,178,710000000,world,19.596077660493382,4.171412878387156,-16.311963175257468,0.019623711378264328,0.0025137342524556836,0.9778832428209825,-0.20821372313507658
1970/01/01/01:02:58.760000,3570,178,760000000,world,19.572148225309828,4.16680578288704,-16.313564027352676,0.019540356650322332,0.0023114255906545667,0.9779841120543046,-0.20774962898419477
1970/01/01/01:02:58.810000,3571,178,810000000,world,19.54844405261639,4.162202142662754,-16.315155508820162,0.01946470782647236,0.002135759738438568,0.9778981078181677,-0.2081630476458706
1970/01/01/01:02:58.860000,3572,178,860000000,world,19.524880842871273,4.15772213916113,-16.3167626487053,0.01938516920352695,0.002014975213548614,0.9777214122750357,-0.20899998820274795
1970/01/01/01:02:58.910000,3573,178,910000000,world,19.501695049452504,4.15331128867282,-16.318465160335677,0.0192261701130857,0.0020331272674445197,0.9775459963136477,-0.2098333764381989
1970/01/01/01:02:58.960000,3574,178,960000000,world,19.47893498854172,4.148928974003879,-16.3203076348696,0.019018649900671113,0.002159638498252025,0.9774257385088171,-0.21041043847206437
1970/01/01/01:02:59.010000,3575,179,10000000,world,19.456536843899357,4.144589773373275,-16.32211148050897,0.018826659271002633,0.0022431708187408642,0.9774138475372826,-0.2104820555955716
1970/01/01/01:02:59.060000,3576,179,60000000,world,19.434465848892252,4.140301567184718,-16.323857634447762,0.01866272691056848,0.0022371246379658477,0.9775717432945232,-0.20976220967972892
1970/01/01/01:02:59.110000,3577,179,110000000,world,19.412660126612977,4.136087977075803,-16.325628334623467,0.018539730604256153,0.0021139540752853035,0.9779180384990752,-0.2081540765044261
1970/01/01/01:02:59.160000,3578,179,160000000,world,19.39099810257941,4.132009299003671,-16.32749191677381,0.018463476248472846,0.0018865840728927753,0.9783414412346795,-0.2061639279995616
1970/01/01/01:02:59.210000,3579,179,210000000,world,19.369693745820495,4.127995493704227,-16.329345736726555,0.01834037155542552,0.0017265777286468319,0.978751612021135,-0.20422030179829168
1970/01/01/01:02:59.260000,3580,179,260000000,world,19.348790616693375,4.124025127995052,-16.33122566020647,0.018170813123800186,0.0016894100644474848,0.979101098757655,-0.20255371103884173
1970/01/01/01:02:59.310000,3581,179,310000000,world,19.32821850784059,4.120119672461129,-16.333214997053542,0.017979030059508856,0.0017754007065944317,0.9793405572232304,-0.2014092237414731
1970/01/01/01:02:59.360000,3582,179,360000000,world,19.30790049094929,4.116306034482378,-16.335371580996078,0.017794728296128208,0.0019085176010264096,0.9794194166328888,-0.20104057184540036
1970/01/01/01:02:59.410000,3583,179,410000000,world,19.287675074082973,4.112649373109202,-16.337524458659843,0.01767872160698237,0.0019129432343535189,0.9793342020635984,-0.20146544150047152
1970/01/01/01:02:59.460000,3584,179,460000000,world,19.267496742647882,4.1091652627386095,-16.339635426642634,0.017614419655697256,0.0017772490775239975,0.9791707159066778,-0.2022653769598579
1970/01/01/01:02:59.510000,3585,179,510000000,world,19.24754453713356,4.105784975871465,-16.341667616391113,0.017521974209859324,0.0016481450033442014,0.9790232333151662,-0.20298712438712657
1970/01/01/01:02:59.560000,3586,179,560000000,world,19.227826380745476,4.102496419059272,-16.343675139093612,0.01740233555372104,0.0015960906307042552,0.9789452860650575,-0.20337339576005733
1970/01/01/01:02:59.610000,3587,179,610000000,world,19.208271781376602,4.09931837036935,-16.345729873045332,0.01726838452247465,0.0016551498695899073,0.978987038616075,-0.20318327095659494
1970/01/01/01:02:59.660000,3588,179,660000000,world,19.188794366510308,4.09620700023034,-16.347914481280295,0.01715316424323226,0.0017812153468045855,0.979186663776539,-0.20222777680255527
1970/01/01/01:02:59.710000,3589,179,710000000,world,19.169189098467804,4.093055775355076,-16.35005872572703,0.01712472504121552,0.001850152691330834,0.9795140134768827,-0.20063802762609703
1970/01/01/01:02:59.760000,3590,179,760000000,world,19.14949545982467,4.090010310763386,-16.352147378054273,0.01712634356998122,0.0017826580428990948,0.9799025485609918,-0.19873224652757815
1970/01/01/01:02:59.810000,3591,179,810000000,world,19.12995107625463,4.08700038163747,-16.35417866388277,0.017083016550843627,0.0017049152681400542,0.9802573066596324,-0.19697938102719187
1970/01/01/01:02:59.860000,3592,179,860000000,world,19.11057791833594,4.083962168507514,-16.356201383716677,0.017007224635196196,0.001700545347048729,0.9805149551888743,-0.19569947651102765
1970/01/01/01:02:59.910000,3593,179,910000000,world,19.091282245591003,4.080915114452428,-16.358299362437954,0.016924998873257956,0.0017863844658065017,0.9806303110476355,-0.19512700043381526
1970/01/01/01:02:59.960000,3594,179,960000000,world,19.071918202153014,4.077853295434333,-16.360533001182727,0.016878085581067227,0.0019098444800776672,0.9805795244514159,-0.19538495066871175
1970/01/01/01:03:00.010000,3595,180,10000000,world,19.05237020491685,4.074667457034386,-16.36274322101928,0.01689879518991756,0.001960492884844822,0.9804109672967946,-0.1962267117212683
1970/01/01/01:03:00.060000,3596,180,60000000,world,19.032894065590835,4.07148678192062,-16.36495782173631,0.016893123689204124,0.0018731286642525455,0.9802497305985374,-0.19703192488153648
1970/01/01/01:03:00.110000,3597,180,110000000,world,19.013531218981644,4.068356086170709,-16.367260036451533,0.016872280420555986,0.0017007071510997899,0.9801635910829645,-0.1974633344799576
1970/01/01/01:03:00.160000,3598,180,160000000,world,18.994202103109927,4.065243536411043,-16.36958714293207,0.016848225685749,0.0015974645155023902,0.9801927711201034,-0.19732135424797928
1970/01/01/01:03:00.210000,3599,180,210000000,world,18.974829107349805,4.062101392260147,-16.371985977207665,0.01682769702317749,0.0016293793290991856,0.9803723762418797,-0.19642855606491733
1970/01/01/01:03:00.260000,3600,180,260000000,world,18.95521496290698,4.058821396205549,-16.374449302402425,0.01685502519081976,0.0017898469797763567,0.9806962122439058,-0.1948015499529254
1970/01/01/01:03:00.310000,3601,180,310000000,world,18.93534332030071,4.0553638664397065,-16.376812933124736,0.016922292944101143,0.0019294359056599851,0.9811299922620714,-0.19259764163256954
1970/01/01/01:03:00.360000,3602,180,360000000,world,18.915534916118816,4.051805866279078,-16.379062467419878,0.01693548718207578,0.0019861778616535176,0.981541240158285,-0.19048894519090417
1970/01/01/01:03:00.410000,3603,180,410000000,world,18.8958496168961,4.048142420029654,-16.381244760046616,0.016924805503548867,0.001958537384948882,0.981853595622382,-0.1888735869659359
1970/01/01/01:03:00.460000,3604,180,460000000,world,18.876196091976734,4.0443449506818325,-16.383336812085528,0.01692331600457929,0.0019196204705381082,0.982029205603458,-0.1879589204440689
1970/01/01/01:03:00.510000,3605,180,510000000,world,18.856486503476678,4.040391724406668,-16.385341808285503,0.0169403871622365,0.0019237297447555286,0.9820382220164271,-0.1879102260268907
1970/01/01/01:03:00.560000,3606,180,560000000,world,18.836563755013913,4.036289195864768,-16.387296640815883,0.016992904181404363,0.001973627090780219,0.9818995266423914,-0.18862837958015766
1970/01/01/01:03:00.610000,3607,180,610000000,world,18.816510866288912,4.032278363905547,-16.389170383948965,0.017033523136146148,0.0019433877365920243,0.9816868117901675,-0.18972898010301925
1970/01/01/01:03:00.660000,3608,180,660000000,world,18.79657309703765,4.028306916283115,-16.390956267452626,0.017017659702161365,0.0018743305742222162,0.9815047484013284,-0.1906706978242992
1970/01/01/01:03:00.710000,3609,180,710000000,world,18.776767453949375,4.0242917041738755,-16.392677815725076,0.016970449347059876,0.001855889888929406,0.9814158625161825,-0.19113205990439425
1970/01/01/01:03:00.760000,3610,180,760000000,world,18.75701636769756,4.020232703800576,-16.394411774371015,0.01691336194124826,0.001928957408417523,0.9814659007659249,-0.19087928893647
1970/01/01/01:03:00.810000,3611,180,810000000,world,18.737236798175623,4.0161034754120974,-16.39622871145382,0.01687195930095145,0.0020712080554898976,0.9816861381550288,-0.189745548671909
1970/01/01/01:03:00.860000,3612,180,860000000,world,18.717339983767538,4.011812637398627,-16.398019117332034,0.016875756823933125,0.00217739197666079,0.9820299908259869,-0.18795628458264257
1970/01/01/01:03:00.910000,3613,180,910000000,world,18.697650573441216,4.007487432721161,-16.399831570280696,0.016825943128348283,0.002163814898732126,0.9823832983487836,-0.18610550950546964
1970/01/01/01:03:00.960000,3614,180,960000000,world,18.67823504025504,4.003175049407071,-16.401685518979804,0.016750331084413535,0.002037545376392008,0.9826802048493514,-0.1845396700296132
1970/01/01/01:03:01.010000,3615,181,10000000,world,18.659004041269412,3.9988510573807203,-16.403462734330137,0.01667693655065732,0.0019278610404006647,0.9828807166293098,-0.18347659255978344
1970/01/01/01:03:01.060000,3616,181,60000000,world,18.63985835748217,3.9944817896996185,-16.4051581780272,0.016622156510110845,0.001879682124523152,0.9829491378437393,-0.18311516354555069
1970/01/01/01:03:01.110000,3617,181,110000000,world,18.620574064532104,3.989981625602469,-16.40683105980009,0.016620813493996887,0.0019365608562711477,0.9828840902152403,-0.1834635208770596
1970/01/01/01:03:01.160000,3618,181,160000000,world,18.601094544915142,3.985326781852785,-16.40855516811332,0.01664589730165593,0.0020603459707903785,0.9827108798579305,-0.1843854541073011
1970/01/01/01:03:01.210000,3619,181,210000000,world,18.58169325801808,3.980611004905061,-16.410223181366398,0.016623443266657614,0.002137754215120594,0.9825494236107639,-0.1852450304408497
1970/01/01/01:03:01.260000,3620,181,260000000,world,18.562400512874593,3.9758380909987046,-16.411854975172094,0.016588850552551385,0.002135976802860355,0.9824704603434857,-0.1856664810699601
1970/01/01/01:03:01.310000,3621,181,310000000,world,18.543105503877896,3.9709821570936006,-16.413467709202838,0.0165861393418463,0.002061310728566428,0.9825099172574281,-0.18545865703874576
1970/01/01/01:03:01.360000,3622,181,360000000,world,18.523670679831554,3.966039917013276,-16.41498270883499,0.016623076801645063,0.0020111771334702247,0.9826893738136836,-0.18450263704851125
1970/01/01/01:03:01.410000,3623,181,410000000,world,18.503929437013404,3.961019905354342,-16.416403255801537,0.016706398523031955,0.0020078022365818135,0.9829866290106909,-0.18290476255353952
1970/01/01/01:03:01.460000,3624,181,460000000,world,18.48391463651912,3.956181523114909,-16.41776325045684,0.016771750200629064,0.0020314668205917443,0.9833206995958024,-0.1810938521435404
1970/01/01/01:03:01.510000,3625,181,510000000,world,18.463851127556147,3.9514789407582525,-16.419136375216652,0.016763458605191357,0.0021619768443111474,0.9835928340534213,-0.17960915653294396
1970/01/01/01:03:01.560000,3626,181,560000000,world,18.44375796343836,3.946827522361311,-16.42066062874887,0.016729012714106425,0.002338188607829588,0.983749285491905,-0.17875126937119049
1970/01/01/01:03:01.610000,3627,181,610000000,world,18.423548653438797,3.942193203373386,-16.422170165009977,0.016732664911971108,0.0024271795541475844,0.983761925337134,-0.17868016392798258
1970/01/01/01:03:01.660000,3628,181,660000000,world,18.403096971458424,3.937548558341508,-16.42364990872598,0.01680027919498257,0.002383865333535231,0.9836414515163817,-0.179336451018157
1970/01/01/01:03:01.710000,3629,181,710000000,world,18.382457523019188,3.9330909731646275,-16.42512831746085,0.016880090176071384,0.0021754581751095795,0.9834561009519489,-0.18034530057022802
1970/01/01/01:03:01.760000,3630,181,760000000,world,18.36187013534751,3.9287330878962754,-16.42652814026289,0.016902909159335625,0.0019768956212332474,0.983306161288764,-0.18116118987578256
1970/01/01/01:03:01.810000,3631,181,810000000,world,18.34136303380296,3.9243869726388136,-16.427862080994068,0.016888413997603848,0.0018685459105057176,0.9832531848768572,-0.1814509973473356
1970/01/01/01:03:01.860000,3632,181,860000000,world,18.320853300289485,3.920058860257927,-16.42915724018143,0.01685960872666839,0.0018964964216069426,0.9833369349651241,-0.18099897576589083
1970/01/01/01:03:01.910000,3633,181,910000000,world,18.30020573023157,3.9157315781340696,-16.430407092984414,0.01684993986186578,0.0020491276328737044,0.9835736632544992,-0.1797073441869326
1970/01/01/01:03:01.960000,3634,181,960000000,world,18.27932427677742,3.9113160911643274,-16.4315665712677,0.016888327345911596,0.0021754760960606577,0.9839152552419433,-0.17782244572998743
1970/01/01/01:03:02.010000,3635,182,10000000,world,18.25850644546408,3.9069488210250625,-16.432648383595286,0.01687523809675795,0.002209341136956989,0.9842429866897842,-0.17600025086030852
1970/01/01/01:03:02.060000,3636,182,60000000,world,18.237812201523198,3.9026752645025464,-16.433751308634275,0.01683534477975285,0.0021486551142966886,0.9844918221087987,-0.17460757901146232
1970/01/01/01:03:02.110000,3637,182,110000000,world,18.21715252615691,3.898464632468075,-16.434994260870663,0.0168081070389868,0.0020438737534876476,0.9846275420544981,-0.17384450967909063
1970/01/01/01:03:02.160000,3638,182,160000000,world,18.19644649661963,3.894275431401336,-16.436365446232085,0.01679694082865414,0.0020122482539068594,0.9846208729291017,-0.1738837261738352
1970/01/01/01:03:02.210000,3639,182,210000000,world,18.17553114997263,3.890087789149495,-16.4379317486294,0.01681919221710154,0.002080229520261168,0.9844856923849408,-0.17464452155063784
1970/01/01/01:03:02.260000,3640,182,260000000,world,18.15448026197593,3.886069506263991,-16.439730628216015,0.01682631081581929,0.002157769092221879,0.984282422794029,-0.17578490115931533
1970/01/01/01:03:02.310000,3641,182,310000000,world,18.13354843168337,3.8821139355731695,-16.44159970363719,0.01679565583875809,0.0021520559775731595,0.984106309441741,-0.17677116936019735
1970/01/01/01:03:02.360000,3642,182,360000000,world,18.112766091884442,3.8781339201643124,-16.4435487547795,0.01676439083398558,0.0020409877439050085,0.9840185346963746,-0.17726339989686105
1970/01/01/01:03:02.410000,3643,182,410000000,world,18.092060140328023,3.8741379377667853,-16.44565142157509,0.016751981198626944,0.0018729121524676243,0.984062798283919,-0.17702054219669833
1970/01/01/01:03:02.460000,3644,182,460000000,world,18.071349391637487,3.8701025040101555,-16.447814840167158,0.016752837951670395,0.0018070638727215036,0.984267059349405,-0.17588187177875997
1970/01/01/01:03:02.510000,3645,182,510000000,world,18.05053422989479,3.865923320761977,-16.450071645134443,0.016763793833987607,0.001910840810851296,0.9845860563811089,-0.17408509839610933
1970/01/01/01:03:02.560000,3646,182,560000000,world,18.029939447727855,3.8617168711188863,-16.452434528424075,0.016684212359064834,0.002117137512206277,0.9849131441577806,-0.17223023326915218
1970/01/01/01:03:02.610000,3647,182,610000000,world,18.00963821512221,3.8575351958197883,-16.454728396132857,0.016570450445037715,0.0022648696205464737,0.9851880213452431,-0.17066005137551954
1970/01/01/01:03:02.660000,3648,182,660000000,world,17.989537651247012,3.8533563482071256,-16.456923926885736,0.0164786924427388,0.002310816689316338,0.985374314686693,-0.16958942413174288
1970/01/01/01:03:02.710000,3649,182,710000000,world,17.969534903677474,3.849147631054179,-16.459099212397966,0.016436656832401093,0.002237622158616274,0.9854392466457236,-0.16921678560225112
1970/01/01/01:03:02.760000,3650,182,760000000,world,17.94940305234598,3.8448285023283217,-16.461322832721056,0.01648038605048902,0.002094109910282031,0.9853814397405911,-0.16955067028493362
1970/01/01/01:03:02.810000,3651,182,810000000,world,17.929090088475427,3.8403761898693545,-16.463499112021807,0.016555762228307073,0.0020033373017909863,0.9852238401726416,-0.17045784854962792
1970/01/01/01:03:02.860000,3652,182,860000000,world,17.908866807220814,3.8358713702113865,-16.465675263369388,0.016556251586408503,0.002015772122969647,0.9850768799203448,-0.17130489731048057
1970/01/01/01:03:02.910000,3653,182,910000000,world,17.888763383074327,3.8313147391160607,-16.46786626902487,0.016511967831808062,0.0021330348122338594,0.9850057144006122,-0.17171647468705709
1970/01/01/01:03:02.960000,3654,182,960000000,world,17.868672502820555,3.8266848294883085,-16.469951745690352,0.016489333324082735,0.0022341120626692772,0.9850438037367887,-0.17149873279292058
1970/01/01/01:03:03.010000,3655,183,10000000,world,17.848454084449344,3.821981479019832,-16.471922803647495,0.016520553797967585,0.00227180177734424,0.9852113664151245,-0.17052997890498944
1970/01/01/01:03:03.060000,3656,183,60000000,world,17.827958817474673,3.817207582976379,-16.47382934485905,0.016617820181132087,0.0022128535804207617,0.985484928584872,-0.16893314317660904
1970/01/01/01:03:03.110000,3657,183,110000000,world,17.80729003551249,3.8125921053669036,-16.475700407927697,0.016704615779712544,0.002055408553477616,0.9857808630475823,-0.16719097211420975
1970/01/01/01:03:03.160000,3658,183,160000000,world,17.786635155876446,3.808103111984413,-16.477503053197008,0.016737332621497254,0.001918891550989388,0.986014309220757,-0.1658070009494364
1970/01/01/01:03:03.210000,3659,183,210000000,world,17.7659767729863,3.803673578203259,-16.479292631565748,0.01674444526018245,0.0018732042167797956,0.9861409648438703,-0.16505184675032167
1970/01/01/01:03:03.260000,3660,183,260000000,world,17.745215499180187,3.7992716478239177,-16.481139287602293,0.01675396487922083,0.0019505046665417968,0.9861350914954925,-0.16508507356374916
1970/01/01/01:03:03.310000,3661,183,310000000,world,17.724211212003457,3.7948542592566867,-16.483124926200766,0.01679938490978707,0.0020843814280308635,0.986003547036995,-0.16586271808691605
1970/01/01/01:03:03.360000,3662,183,360000000,world,17.703016469913194,3.7905759799192458,-16.485082130800958,0.016858002291283966,0.002094862677642014,0.9858028480369774,-0.16704539536094126
1970/01/01/01:03:03.410000,3663,183,410000000,world,17.68188888979334,3.786382308774246,-16.486985333928224,0.01687202155611843,0.002012668859877642,0.9856324405645249,-0.1680475413669854
1970/01/01/01:03:03.460000,3664,183,460000000,world,17.660854883925,3.782184638686812,-16.488815059056368,0.016860128441238683,0.001955024660424682,0.9855495449821052,-0.16853488758440385
1970/01/01/01:03:03.510000,3665,183,510000000,world,17.639824024781063,3.7779817417920096,-16.490632202071925,0.016847162305098768,0.001972315284527589,0.985590258938395,-0.16829772601087417
1970/01/01/01:03:03.560000,3666,183,560000000,world,17.618663973708188,3.7737746500886447,-16.492473245843467,0.01686261976789607,0.0020555576773990222,0.9857726745225834,-0.16722338622869445
1970/01/01/01:03:03.610000,3667,183,610000000,world,17.597281513198805,3.769490309631876,-16.494222945514707,0.016923406606993863,0.002115507066333741,0.9860543445087918,-0.16554743312417597
1970/01/01/01:03:03.660000,3668,183,660000000,world,17.575972862485603,3.765260997568538,-16.495919941056833,0.016932122817384578,0.0020784436445219156,0.9863257907326722,-0.16392198700748534
1970/01/01/01:03:03.710000,3669,183,710000000,world,17.5547955343533,3.7611295912089004,-16.497647582221987,0.016911555415487323,0.0019634814903308666,0.9865261867379002,-0.1627151711250172
1970/01/01/01:03:03.760000,3670,183,760000000,world,17.53364772421281,3.7570756338123066,-16.49938481530724,0.016895341878139895,0.001882041019889803,0.986625267401813,-0.1621159679634345
1970/01/01/01:03:03.810000,3671,183,810000000,world,17.51239752486403,3.7530816935860702,-16.501190742645168,0.01690368490990797,0.0018847410877794162,0.986601903572369,-0.16225719415445497
1970/01/01/01:03:03.860000,3672,183,860000000,world,17.490978523936143,3.7490859794163995,-16.50305986724102,0.01692910190994265,0.0019777291071390785,0.9864815023601256,-0.16298386299695777
1970/01/01/01:03:03.910000,3673,183,910000000,world,17.4696806855279,3.7451567418748786,-16.504860558711453,0.01690130996390228,0.002018207448906903,0.9863639275748796,-0.16369628871558173
1970/01/01/01:03:03.960000,3674,183,960000000,world,17.448546261925337,3.7412835882776,-16.506567390634668,0.016854188125140675,0.001984712552969073,0.9863081138317076,-0.16403750134790493
1970/01/01/01:03:04.010000,3675,184,10000000,world,17.427457086211795,3.7374212531411146,-16.508200392948613,0.016836707954187877,0.0018898925089594675,0.9863434772996965,-0.16382764833785857
1970/01/01/01:03:04.060000,3676,184,60000000,world,17.406242445662194,3.7334975453158337,-16.509717460689977,0.01687168047134481,0.0018215798643531934,0.9864820175880291,-0.1629885186763841
1970/01/01/01:03:04.110000,3677,184,110000000,world,17.38481559904571,3.729469610846906,-16.511134329346238,0.01693719723713548,0.0018231894822139595,0.9866966883727987,-0.16167700047939668
1970/01/01/01:03:04.160000,3678,184,160000000,world,17.36342124240128,3.7253834543819297,-16.512523317436486,0.016938883775226354,0.001921112802117636,0.9868834603511051,-0.16053167671048454
1970/01/01/01:03:04.210000,3679,184,210000000,world,17.34207604687651,3.721228245556613,-16.513993184194216,0.016912595587049415,0.002067354849010701,0.9869843457818077,-0.1599111982823409
1970/01/01/01:03:04.260000,3680,184,260000000,world,17.32063054792704,3.7169881109098273,-16.51543036391299,0.01693017902868609,0.002146155860320057,0.9869787414829821,-0.15994288641183357
1970/01/01/01:03:04.310000,3681,184,310000000,world,17.29890628420993,3.712712353439604,-16.51685796195179,0.017020899231679893,0.002086177973402426,0.9868756094602457,-0.1605692009797556
1970/01/01/01:03:04.360000,3682,184,360000000,world,17.276911549592484,3.7086137310315266,-16.518295827929677,0.017139109305198973,0.0018496970537198018,0.9867402993025506,-0.1613890060857515
1970/01/01/01:03:04.410000,3683,184,410000000,world,17.254857349427226,3.704623684689527,-16.51965508487119,0.017212797777089898,0.0016220101820947597,0.9866628088044965,-0.16185669710480263
1970/01/01/01:03:04.460000,3684,184,460000000,world,17.23276100434697,3.700652081034074,-16.52093692147682,0.017258835656592492,0.0014834961071162104,0.9866918742820648,-0.1616758394344216
1970/01/01/01:03:04.510000,3685,184,510000000,world,17.210536065266314,3.6966630454720115,-16.522169914973738,0.01730122068605754,0.0014899381915815598,0.9868512657515818,-0.16069544838438432
1970/01/01/01:03:04.560000,3686,184,560000000,world,17.18815676701557,3.6925940797699055,-16.523396681002865,0.017329356128786437,0.0016628964402370658,0.9871143143283383,-0.159066837020434
1970/01/01/01:03:04.610000,3687,184,610000000,world,17.16595761449769,3.6885317509302777,-16.52469036033926,0.01727037615596776,0.001854333053024595,0.9873804887242941,-0.1574105016920225
1970/01/01/01:03:04.660000,3688,184,660000000,world,17.144003584685315,3.6844863514536437,-16.52594362821375,0.017179280802986127,0.0019640149376848664,0.9875891853815784,-0.1561045030540989
1970/01/01/01:03:04.710000,3689,184,710000000,world,17.12219653485597,3.6804326433387407,-16.527177348557256,0.017111203991594836,0.001962307778520084,0.987706673626791,-0.15536692994083556
1970/01/01/01:03:04.760000,3690,184,760000000,world,17.100436832612516,3.6763428398405456,-16.5284661753805,0.01709327037557557,0.0018274122885037682,0.9877044055317687,-0.1553849669862902
1970/01/01/01:03:04.810000,3691,184,810000000,world,17.078509007010375,3.672137601318063,-16.52988154962495,0.017157616000719515,0.0016233391690565605,0.9875823785631366,-0.15615385533086173
1970/01/01/01:03:04.860000,3692,184,860000000,world,17.056377003625116,3.6678010972485753,-16.53128983155866,0.01724858224621265,0.001480120228972809,0.9873643160128311,-0.15751826281138828
1970/01/01/01:03:04.910000,3693,184,910000000,world,17.034343030070016,3.663417561420405,-16.532720879844867,0.01725559744596232,0.0014481712157376446,0.9871578587598452,-0.15880651449355102
1970/01/01/01:03:04.960000,3694,184,960000000,world,17.01245299663709,3.658991416661099,-16.534258354410053,0.017204556040717772,0.0015592220239399582,0.9870268787580775,-0.1596230330723272
1970/01/01/01:03:05.010000,3695,185,10000000,world,16.9906112432107,3.654491372256695,-16.535956763780526,0.01715003574113602,0.0017656924913271221,0.9870050421374374,-0.15976171443552775
1970/01/01/01:03:05.060000,3696,185,60000000,world,16.96873791796336,3.6498913201846177,-16.537656408084047,0.017136185978034815,0.0019232591801868167,0.987119225538713,-0.159054351641518
1970/01/01/01:03:05.110000,3697,185,110000000,world,16.946761127761558,3.645163335587874,-16.53936774890391,0.01716630063811439,0.0019728360245584247,0.9873395121411058,-0.15767724568048894
1970/01/01/01:03:05.160000,3698,185,160000000,world,16.92501360285689,3.6404187560841685,-16.54119237398731,0.01713943121928967,0.0018718710994498134,0.9875714264792153,-0.15622232106160214
1970/01/01/01:03:05.210000,3699,185,210000000,world,16.903554563539238,3.6356820876045215,-16.54318639001287,0.017082598523612665,0.0016770132401788956,0.9877570146966692,-0.15505306308421507
1970/01/01/01:03:05.260000,3700,185,260000000,world,16.882292022457236,3.6309290612159497,-16.545188471125243,0.017023770079900778,0.0015480692762856044,0.9878615738354635,-0.15439334724366677
1970/01/01/01:03:05.310000,3701,185,310000000,world,16.86112473763603,3.6261328073934127,-16.547207521875706,0.016977070474408676,0.0015422060306656906,0.9878547766557108,-0.1544420309279892
1970/01/01/01:03:05.360000,3702,185,360000000,world,16.83994341616604,3.6212623945893143,-16.549260418370267,0.016949518581328055,0.0016404344248546663,0.9877575936203101,-0.15506437063417644
1970/01/01/01:03:05.410000,3703,185,410000000,world,16.819025290876244,3.6164087450101063,-16.55122911043966,0.0168668612675258,0.0017114405079616836,0.9876513651377054,-0.15574774766909744
1970/01/01/01:03:05.460000,3704,185,460000000,world,16.798395716273404,3.611580740994771,-16.55311563421607,0.016765773623982547,0.001717515312868645,0.9875854706020031,-0.15617585354900274
1970/01/01/01:03:05.510000,3705,185,510000000,world,16.777959706805408,3.606748840619489,-16.554992607822026,0.016689106413153448,0.0016358036076482751,0.9875954249320043,-0.1561219860463658
1970/01/01/01:03:05.560000,3706,185,560000000,world,16.757619215803604,3.6018820110987773,-16.55693861207867,0.0166516755596654,0.001511397934554932,0.9877128147366454,-0.15538285935827076
1970/01/01/01:03:05.610000,3707,185,610000000,world,16.737180334657257,3.5969818289696183,-16.55884278856197,0.01666526636614392,0.0014459307978268079,0.9879230537415569,-0.15403966394091587
1970/01/01/01:03:05.660000,3708,185,660000000,world,16.716700888467688,3.5922460778894143,-16.56074514283505,0.016661933190621512,0.001430365268602813,0.9881745816455872,-0.1524182739277616
1970/01/01/01:03:05.710000,3709,185,710000000,world,16.696376487253204,3.5875980542012855,-16.562735114579105,0.016595260452457503,0.0015357596691681717,0.9883947324830751,-0.15099036913811487
1970/01/01/01:03:05.760000,3710,185,760000000,world,16.676196686960438,3.5829692427572235,-16.56487549691145,0.016507390890579062,0.0017221085812258088,0.9885381819549791,-0.15005600023046353
1970/01/01/01:03:05.810000,3711,185,810000000,world,16.656052074311976,3.5783438925879603,-16.567003684854882,0.016459994146870816,0.0018336319129391761,0.9885773269765342,-0.149801785618942
1970/01/01/01:03:05.860000,3712,185,860000000,world,16.63574611364435,3.5736282960229913,-16.569124086153334,0.016497605627156797,0.0018293987442906145,0.988507718826042,-0.15025635470801066
1970/01/01/01:03:05.910000,3713,185,910000000,world,16.61520365760275,3.5688204415020595,-16.571256544241415,0.016592100641975298,0.001718038895902619,0.9883528699391528,-0.1512625367421776
1970/01/01/01:03:05.960000,3714,185,960000000,world,16.594693642023497,3.564019328235909,-16.573290125966082,0.016630854713819237,0.0016127496742831427,0.9882133916648371,-0.1521680197816055
1970/01/01/01:03:06.010000,3715,186,10000000,world,16.5742480024852,3.559235339225211,-16.57522912044716,0.01663170447338575,0.0015730157356194365,0.9881478250285768,-0.15259353826128605
1970/01/01/01:03:06.060000,3716,186,60000000,world,16.553757507128964,3.5544439914484274,-16.577144266080545,0.016631794787787636,0.0016403904661157398,0.9881846216944784,-0.1523543434490668
1970/01/01/01:03:06.110000,3717,186,110000000,world,16.533086471380685,3.549642037844341,-16.57911491000161,0.016663275532842935,0.001772526941756088,0.9883401506660033,-0.15133717315405068
1970/01/01/01:03:06.160000,3718,186,160000000,world,16.512169606012247,3.5447992130332273,-16.58103419775243,0.016734441094254263,0.0018532294471214005,0.9885838237186538,-0.14972824551060812
1970/01/01/01:03:06.210000,3719,186,210000000,world,16.491311740428852,3.5400355140233892,-16.582960270619456,0.016752664697137168,0.0018068880967841655,0.9888176895849328,-0.14817442473270015
1970/01/01/01:03:06.260000,3720,186,260000000,world,16.470565563252055,3.535375373747271,-16.58497224165927,0.016743789263403988,0.0016708953968265108,0.9889850956322909,-0.1470555481675694
1970/01/01/01:03:06.310000,3721,186,310000000,world,16.449843164425786,3.530789737934227,-16.58700555826217,0.016735444698007227,0.001585719636694015,0.9890561645566277,-0.14657869468830417
1970/01/01/01:03:06.360000,3722,186,360000000,world,16.4290591880134,3.5262425061763967,-16.589108606296453,0.016739518329407996,0.0016080085036186051,0.9890059682959106,-0.14691629422844904
1970/01/01/01:03:06.410000,3723,186,410000000,world,16.408140617810464,3.5216838860274837,-16.591281064893078,0.01675615070146545,0.001729170030791878,0.9888588927116042,-0.1478997352595827
1970/01/01/01:03:06.460000,3724,186,460000000,world,16.387429067855244,3.5171664205963187,-16.593377964551294,0.016703237854716207,0.0018115645039498637,0.988701331318247,-0.14895434712939024
1970/01/01/01:03:06.510000,3725,186,510000000,world,16.366987591569508,3.512678324049824,-16.59537791517579,0.01661811339768945,0.001826266119474232,0.988585780649567,-0.14972861235130927
1970/01/01/01:03:06.560000,3726,186,560000000,world,16.346719250594568,3.5081918146792512,-16.59735295647384,0.01655137285980997,0.0017547191534107813,0.9885459922872459,-0.14999931383167203
1970/01/01/01:03:06.610000,3727,186,610000000,world,16.3265224140422,3.503678523282589,-16.59937763330185,0.01652213408265117,0.0016371103267967294,0.9886119790895158,-0.14956835813715202
1970/01/01/01:03:06.660000,3728,186,660000000,world,16.306175035682077,3.4990590295006143,-16.601354564048993,0.016556373294969996,0.0016003433402500516,0.9887818672937788,-0.1484376782206555
1970/01/01/01:03:06.710000,3729,186,710000000,world,16.285624608043552,3.49431870653476,-16.603325421208762,0.016610949804418986,0.0016850924977421596,0.9890327051980617,-0.1467499398925705
1970/01/01/01:03:06.760000,3730,186,760000000,world,16.265153453498897,3.489550708363627,-16.60531692585228,0.016593278876505645,0.0018531215627519144,0.9892681987084601,-0.14515391851658369
1970/01/01/01:03:06.810000,3731,186,810000000,world,16.24479933799373,3.484771821708945,-16.607218749422195,0.016552596422357846,0.001977926652909783,0.9894326706609325,-0.14403155760668915
1970/01/01/01:03:06.860000,3732,186,860000000,world,16.224466780754632,3.479957569217071,-16.60902462019544,0.016534825027161297,0.0020227473169994255,0.9894971335682514,-0.14358945196227585
1970/01/01/01:03:06.910000,3733,186,910000000,world,16.204067945708672,3.4750855714375093,-16.610804612007296,0.016560962212862067,0.0019582034427511764,0.9894377137662679,-0.1439962171268458
1970/01/01/01:03:06.960000,3734,186,960000000,world,16.18352282074424,3.470134260844422,-16.61264042223851,0.016622128920611035,0.0018250143160792034,0.9892797470432463,-0.1450722449090219
1970/01/01/01:03:07.010000,3735,187,10000000,world,16.163173605011323,3.4652039241742894,-16.61444575956489,0.016597097543079687,0.001732992935337071,0.9891100106025784,-0.14622899854132368
1970/01/01/01:03:07.060000,3736,187,60000000,world,16.143083227031408,3.4603110733442,-16.61626041050151,0.01651067969145719,0.0017435200343938815,0.9889812101200781,-0.14710718413266471
1970/01/01/01:03:07.110000,3737,187,110000000,world,16.123155839563623,3.4554264457156343,-16.61809674244104,0.01641456127635523,0.001858934380267426,0.9889261940934413,-0.14748589484061217
1970/01/01/01:03:07.160000,3738,187,160000000,world,16.10329565657451,3.4505203323316094,-16.61984453141146,0.016351730992140486,0.001964696673447879,0.9889748027221668,-0.14716521477982977
1970/01/01/01:03:07.210000,3739,187,210000000,world,16.083277952205034,3.4455230573220237,-16.621493804718114,0.0163688145811268,0.002026831163929771,0.9891263304443384,-0.1461405360820843
1970/01/01/01:03:07.260000,3740,187,260000000,world,16.063049152712164,3.4404186321918235,-16.623114307269194,0.016435185356870066,0.0020058923633080377,0.9893585143026922,-0.14455307417997595
1970/01/01/01:03:07.310000,3741,187,310000000,world,16.042888968527286,3.435295088669508,-16.624803303160213,0.016451513156912272,0.0019130676244906882,0.9895764537678637,-0.14305289243958338
1970/01/01/01:03:07.360000,3742,187,360000000,world,16.02283435533737,3.4301681968448414,-16.62646737432482,0.01643313035284111,0.0018606818007010412,0.9897248368292937,-0.1420254817040619
1970/01/01/01:03:07.410000,3743,187,410000000,world,16.002770613403758,3.4250234898215837,-16.628142297411596,0.01641853541391886,0.0018973554302272441,0.9897770106430467,-0.1416626307102464
1970/01/01/01:03:07.460000,3744,187,460000000,world,15.982555630400999,3.4198703100936263,-16.629840960628346,0.016436704584967165,0.0020050362236153614,0.9897160222473078,-0.14208451667614877
1970/01/01/01:03:07.510000,3745,187,510000000,world,15.962111750239496,3.414691623146713,-16.63145464285321,0.016494763105684818,0.0020687959179280964,0.9895673553749805,-0.14310867216805664
1970/01/01/01:03:07.560000,3746,187,560000000,world,15.941728162076597,3.409614404001422,-16.632998717720028,0.01649786257796835,0.0020421758981636886,0.9894231662058534,-0.14410221449770877
1970/01/01/01:03:07.610000,3747,187,610000000,world,15.921447488393682,3.4046649745192252,-16.634551949423255,0.016472011262073347,0.001957259924050559,0.9893374760079355,-0.1446934709820024
1970/01/01/01:03:07.660000,3748,187,660000000,world,15.901163687053801,3.3998182580957463,-16.63611395263607,0.01645202272124057,0.0019198215699208685,0.989338192085803,-0.1446913505152055
1970/01/01/01:03:07.710000,3749,187,710000000,world,15.88074259348194,3.395058666828324,-16.63776317386209,0.01645871359665842,0.0019751922549047147,0.9894439537750469,-0.14396482799733554
1970/01/01/01:03:07.760000,3750,187,760000000,world,15.86002836382387,3.390375812151626,-16.63954959705464,0.01651264544445389,0.0020824775660370936,0.9896415797725983,-0.14259221371733025
1970/01/01/01:03:07.810000,3751,187,810000000,world,15.839071605022726,3.385972557121472,-16.641384818074247,0.016580900083951182,0.002055722616696751,0.989873024273049,-0.1409689454222336
1970/01/01/01:03:07.860000,3752,187,860000000,world,15.818094648570838,3.3817463394496583,-16.643376651990312,0.016607452077913268,0.0019856987296616004,0.9900620138175683,-0.13963329950816253
1970/01/01/01:03:07.910000,3753,187,910000000,world,15.797123579096684,3.3776079197232787,-16.645523967866453,0.01660514935490623,0.0020086272035549427,0.9901641282880541,-0.13890728376588557
1970/01/01/01:03:07.960000,3754,187,960000000,world,15.776064600459069,3.3735314988633984,-16.647813222217817,0.01661448528789834,0.00210940020479531,0.9901560535692912,-0.13896222108717635
1970/01/01/01:03:08.010000,3755,188,10000000,world,15.754745388756419,3.36941928888692,-16.65004521453051,0.016693943756028208,0.0021639969292812887,0.9900366391028749,-0.1398001523355562
1970/01/01/01:03:08.060000,3756,188,60000000,world,15.733114721777689,3.3652597099398402,-16.652207108176476,0.01682147596435154,0.002111331236221235,0.9898321240296019,-0.14122657846821346
1970/01/01/01:03:08.110000,3757,188,110000000,world,15.711486548808692,3.361120706978047,-16.654334359193268,0.016892516075423643,0.00196431442998482,0.9896434561186471,-0.14253636073297637
1970/01/01/01:03:08.160000,3758,188,160000000,world,15.68992678268461,3.3569968144020463,-16.65634346643308,0.016920680713602552,0.001840610456472926,0.9895295007175913,-0.14332365445707265
1970/01/01/01:03:08.210000,3759,188,210000000,world,15.668348132791294,3.352854343742184,-16.658246459232736,0.016943297099559173,0.0017953631133307048,0.9895195331298117,-0.1433903584947295
1970/01/01/01:03:08.260000,3760,188,260000000,world,15.6466701124051,3.3486624634420172,-16.660111051058642,0.016973004832713454,0.0018721548329017285,0.9896357553234909,-0.142581499250548
1970/01/01/01:03:08.310000,3761,188,310000000,world,15.624833895315735,3.344383998320488,-16.662028142195453,0.017011081656533564,0.002027833864019977,0.9898495200332859,-0.14108309140562586
1970/01/01/01:03:08.360000,3762,188,360000000,world,15.603204174734019,3.340105996605796,-16.66390388036631,0.016971365434607144,0.002122027491563233,0.9900732573209783,-0.13950775925531164
1970/01/01/01:03:08.410000,3763,188,410000000,world,15.581854567295837,3.3358424905843256,-16.665774161930045,0.016895830148154087,0.002104797248226058,0.9902537016308781,-0.13823063031937735
1970/01/01/01:03:08.460000,3764,188,460000000,world,15.56068655902829,3.3315703296258348,-16.667656186383397,0.016837849528437435,0.0019873367820552506,0.9903604023254592,-0.13747294578035055
1970/01/01/01:03:08.510000,3765,188,510000000,world,15.539600682732871,3.3272673174501257,-16.669446751153057,0.016808219292558033,0.0018867093891536783,0.9903667257325769,-0.13743242941034353
1970/01/01/01:03:08.560000,3766,188,560000000,world,15.518374178078044,3.3228701491087396,-16.671140531017244,0.016840939550927473,0.0018509904599255194,0.9902711870034552,-0.13811565001884057
1970/01/01/01:03:08.610000,3767,188,610000000,world,15.496952656938692,3.3183670623306716,-16.67280566093047,0.01689610376548363,0.0019094632398719514,0.990093267893166,-0.13937789100252992
1970/01/01/01:03:08.660000,3768,188,660000000,world,15.475618589431368,3.3138389090567175,-16.67453617926854,0.016881953837743498,0.0020211006118850245,0.9899255998917114,-0.14056394084534074
1970/01/01/01:03:08.710000,3769,188,710000000,world,15.454411716774622,3.3092949882081477,-16.676233725122035,0.0168449799372103,0.002083462202251772,0.9898232799801967,-0.14128616438070718
1970/01/01/01:03:08.760000,3770,188,760000000,world,15.433236475225865,3.304706709706371,-16.677931284607883,0.016832239925256703,0.0020571427389167243,0.9898163232220609,-0.1413367968577565
1970/01/01/01:03:08.810000,3771,188,810000000,world,15.412008337815623,3.300048361924353,-16.67964210501094,0.01685982257735901,0.0019565911936013226,0.989928467973356,-0.14054731028904527
1970/01/01/01:03:08.860000,3772,188,860000000,world,15.390655273556131,3.295297563216162,-16.68125993795456,0.016908118784946507,0.0018982291216241218,0.9901321731561884,-0.13909993503362922
1970/01/01/01:03:08.910000,3773,188,910000000,world,15.369518007547772,3.290554301092786,-16.682797599904248,0.01686715518874049,0.0018954263018893418,0.9903441120995264,-0.13758795755724254
1970/01/01/01:03:08.960000,3774,188,960000000,world,15.348657739156968,3.285840099165172,-16.684328171055846,0.016766836905635043,0.00197789891250039,0.9905136172719574,-0.13637351317207433
1970/01/01/01:03:09.010000,3775,189,10000000,world,15.327974122453057,3.281130879319982,-16.68593519979037,0.016664348755435283,0.0021113299781055804,0.9906107569783366,-0.13567671106379162
1970/01/01/01:03:09.060000,3776,189,60000000,world,15.307368714785449,3.2764031649087837,-16.687520259618974,0.016602052284701074,0.002182421014481878,0.9906093493906406,-0.1356934994695895
1970/01/01/01:03:09.110000,3777,189,110000000,world,15.286624365192935,3.2716168683045117,-16.689114486826377,0.016623199881258884,0.002142273123595335,0.9905109251469517,-0.1364081634510976
1970/01/01/01:03:09.160000,3778,189,160000000,world,15.265726086621058,3.266826795278455,-16.690733011721246,0.016683623919633718,0.0019830157671304857,0.9903427000451958,-0.13761926031107405
1970/01/01/01:03:09.210000,3779,189,210000000,world,15.24493802301556,3.2620700107668283,-16.69227661617778,0.016685365347643664,0.0018436220076691395,0.9901892380250742,-0.13872084392920672
1970/01/01/01:03:09.260000,3780,189,260000000,world,15.2242745951746,3.257317113496036,-16.693741783666834,0.016654052053089966,0.0017848904413772832,0.9900995075982084,-0.1393643489925255
1970/01/01/01:03:09.310000,3781,189,310000000,world,15.203641606600549,3.2525439000245084,-16.695194068105746,0.01661961631902752,0.0018426333636079046,0.9901036323944157,-0.13933840165252206
1970/01/01/01:03:09.360000,3782,189,360000000,world,15.18295429075213,3.2477280109488165,-16.696715619048128,0.016603481587504694,0.0019818135972354805,0.9902255013380142,-0.13846968373589144
1970/01/01/01:03:09.410000,3783,189,410000000,world,15.162131742649354,3.2428340747170443,-16.698208130172812,0.016622303932935876,0.0020869440011887443,0.9904364914883499,-0.1369485304957483
1970/01/01/01:03:09.460000,3784,189,460000000,world,15.141512659496682,3.237961325609537,-16.69973406674655,0.0165761540682363,0.002085379852020218,0.9906549962090825,-0.1353645477706836
1970/01/01/01:03:09.510000,3785,189,510000000,world,15.121160241667171,3.233134956567556,-16.701368088778008,0.016494637051559857,0.002006319297945794,0.9908318764200172,-0.13407495777138898
1970/01/01/01:03:09.560000,3786,189,560000000,world,15.100980038343831,3.2283329458603154,-16.703041130973194,0.016412475126937245,0.001983084942411803,0.9909376468598619,-0.13330145561905393
1970/01/01/01:03:09.610000,3787,189,610000000,world,15.080868520900315,3.223529855153771,-16.70481068261573,0.016348154277401942,0.0020615893826302152,0.9909463987794638,-0.1332430953068552
1970/01/01/01:03:09.660000,3788,189,660000000,world,15.06059525649598,3.2186646949804443,-16.7067309122462,0.01635015276306668,0.002204962248414178,0.9908570207081782,-0.13390360398219467
1970/01/01/01:03:09.710000,3789,189,710000000,world,15.040109960870753,3.2137244837363923,-16.70869074095244,0.016405090174939185,0.002260965641436767,0.9906881998443262,-0.13513937893866804
1970/01/01/01:03:09.760000,3790,189,760000000,world,15.019694187939782,3.20878316684036,-16.710736037978553,0.01642067062049146,0.0021809384008885423,0.9905288337877929,-0.13630199748741723
1970/01/01/01:03:09.810000,3791,189,810000000,world,14.999380133827342,3.203845547934097,-16.712933581276562,0.016418184803861303,0.0020307197529142195,0.9904315746002869,-0.13700954499533116
1970/01/01/01:03:09.860000,3792,189,860000000,world,14.97907703027079,3.1988847079479656,-16.71517498160652,0.016417259974743595,0.0019770380491547436,0.9904252673447393,-0.13705602759665744
1970/01/01/01:03:09.910000,3793,189,910000000,world,14.958700119585238,3.193875583404772,-16.717489314173466,0.0164260197293872,0.0020772855573605777,0.9905331179539084,-0.13627183493690695
1970/01/01/01:03:09.960000,3794,189,960000000,world,14.938172126627787,3.1887948544871763,-16.719885833043467,0.016446616788054747,0.002295012645693896,0.9907286625781968,-0.13483678600144852
1970/01/01/01:03:10.010000,3795,190,10000000,world,14.917839176827938,3.1837412083395638,-16.722205773755523,0.016396309323293886,0.0024603319248591837,0.9909316996455704,-0.13333969568337686
1970/01/01/01:03:10.060000,3796,190,60000000,world,14.897765446495953,3.17873603283033,-16.724436665331748,0.01631416456794855,0.002521746746395625,0.9910936043259526,-0.13213991180559062
1970/01/01/01:03:10.110000,3797,190,110000000,world,14.87785132044317,3.1737549802837455,-16.726658267774468,0.01625283169530654,0.0024603999732239774,0.9911855310497228,-0.13145735023776656
1970/01/01/01:03:10.160000,3798,190,160000000,world,14.857993338903492,3.1687728855140223,-16.728942653320132,0.0162326939184467,0.0023181579981681622,0.9911818418868157,-0.13149023578009666
1970/01/01/01:03:10.210000,3799,190,210000000,world,14.837981507864999,3.1637570006850373,-16.73117956376966,0.01627471540650165,0.0022220165330096614,0.9910841686836056,-0.1322209017730966
1970/01/01/01:03:10.260000,3800,190,260000000,world,14.817809505551985,3.158775946211567,-16.733405773491583,0.016325118464503227,0.0022048515902381998,0.9909205471577546,-0.13343574617455783
