time,.header.seq,.header.stamp.secs,.header.stamp.nsecs,.header.frame_id,.pose.position.x,.pose.position.y,.pose.position.z,.pose.orientation.x,.pose.orientation.y,.pose.orientation.z,.pose.orientation.w
1970/01/01/01:02:36.660000,3123,156,660000000,world,9.851578121448094,2.0691254558608505,-17.093837404651776,0.08175509579908875,0.006475737000059275,0.9856554623504198,-0.14750416495803742
1970/01/01/01:02:36.710000,3124,156,710000000,world,9.801486298629957,2.0576485101533075,-17.097067565923968,0.08137811162425883,0.006518738272975885,0.9855301836670852,-0.1485441553239956
1970/01/01/01:02:36.760000,3125,156,760000000,world,9.751701447854908,2.0461294401055827,-17.099990750013248,0.08103554202509401,0.006340279876162816,0.985301789346657,-0.15024455294641084
1970/01/01/01:02:36.810000,3126,156,810000000,world,9.702546871865561,2.0346740471040055,-17.102834383937818,0.08061026936926456,0.006026286628279739,0.9850933846636625,-0.151844301287794
1970/01/01/01:02:36.860000,3127,156,860000000,world,9.654072276662822,2.0232975853419384,-17.105787011761475,0.08012623018707267,0.005687594171494757,0.9849711897069455,-0.15290256360124485
1970/01/01/01:02:36.910000,3128,156,910000000,world,9.606162193909014,2.011973207404368,-17.108839612527834,0.07962874603576484,0.005473738732063981,0.9849600771200772,-0.1532414678495223
1970/01/01/01:02:36.960000,3129,156,960000000,world,9.558682869730367,2.000700169964646,-17.11185958158472,0.07913493451254669,0.005509861921975084,0.9850735361213616,-0.15276593859447918
1970/01/01/01:02:37.010000,3130,157,10000000,world,9.511395311785051,1.989419734702609,-17.114965295560754,0.07868619723513487,0.00574271558445705,0.9853027178776504,-0.15150596597264637
1970/01/01/01:02:37.060000,3131,157,60000000,world,9.464097774492421,1.9781883293437124,-17.11831959372045,0.07829575826445791,0.006057236595102592,0.9856211943069462,-0.14961265138875635
1970/01/01/01:02:37.110000,3132,157,110000000,world,9.416817040089802,1.9672453233124894,-17.122082871957495,0.07791751818995153,0.006298107495893053,0.9859530968035711,-0.14759974628886333
1970/01/01/01:02:37.160000,3133,157,160000000,world,9.369782521506012,1.9565082333433697,-17.126422045872022,0.07750265206850265,0.006464979193404214,0.9862135046080623,-0.14606322704589686
1970/01/01/01:02:37.210000,3134,157,210000000,world,9.323004371477984,1.9458820169485456,-17.131440610964617,0.07708986725882992,0.006563605465923832,0.9863595542611499,-0.14528902631324092
1970/01/01/01:02:37.260000,3135,157,260000000,world,9.276316637718624,1.935373526628554,-17.13718957884553,0.07673789699845317,0.0065711589749924346,0.9863792536947319,-0.14534126363357383
1970/01/01/01:02:37.310000,3136,157,310000000,world,9.229489011992792,1.9249381066615763,-17.143682921914696,0.07649111806698657,0.006494183859191079,0.9862808159425066,-0.1461406395793076
1970/01/01/01:02:37.360000,3137,157,360000000,world,9.18236412772674,1.9146371371981477,-17.15092686515888,0.07634571297377181,0.006315116668098738,0.9860887103736613,-0.14751442873700205
1970/01/01/01:02:37.410000,3138,157,410000000,world,9.135046444766184,1.9047010951017058,-17.158837313447048,0.0762223217990033,0.006078428167336257,0.9858852451731418,-0.1489412425101852
1970/01/01/01:02:37.460000,3139,157,460000000,world,9.087902571871988,1.8950301347400629,-17.167019363687416,0.07601842796694132,0.006091739346252059,0.9857676730945301,-0.14982050594951304
1970/01/01/01:02:37.510000,3140,157,510000000,world,9.04103330077232,1.8854979270453378,-17.175163205207415,0.07576417941227817,0.006364679774508342,0.9857771898269373,-0.14987532147174365
1970/01/01/01:02:37.560000,3141,157,560000000,world,8.994329394678848,1.8760561911158635,-17.18285091177685,0.07555872709341942,0.0065937796352625935,0.9859114662526124,-0.14908380710784064
1970/01/01/01:02:37.610000,3142,157,610000000,world,8.947587977556909,1.8666348405037572,-17.18994485761151,0.07544654738301058,0.006663360185686846,0.9861515806493732,-0.1475414453696377
1970/01/01/01:02:37.660000,3143,157,660000000,world,8.900733083193497,1.8571786284706595,-17.196456400484724,0.07538670580969935,0.006606506872919287,0.9864500053983726,-0.14556642986502957
1970/01/01/01:02:37.710000,3144,157,710000000,world,8.854146844527188,1.847748885563,-17.20232460252566,0.07523419713704974,0.006525525435190787,0.9866977829380723,-0.14396082190662518
1970/01/01/01:02:37.760000,3145,157,760000000,world,8.80791887351671,1.8383434910767538,-17.20761359917631,0.075000751551426,0.00647485381725883,0.9868382129910866,-0.1431198969931338
1970/01/01/01:02:37.810000,3146,157,810000000,world,8.761838496716521,1.8289005408342769,-17.212416030088004,0.07476383935136104,0.006497510285877916,0.9868687071943065,-0.14303253282441414
1970/01/01/01:02:37.860000,3147,157,860000000,world,8.715637503723478,1.8193416410615206,-17.216866901383998,0.07457366270582652,0.00660176584468623,0.9868031347288738,-0.14357840648104872
1970/01/01/01:02:37.910000,3148,157,910000000,world,8.669075738627116,1.8095927780564076,-17.221023835199134,0.07446130694452575,0.006736094384950017,0.9866595102470358,-0.1446137947763966
1970/01/01/01:02:37.960000,3149,157,960000000,world,8.622027290299192,1.7996898295821795,-17.22473809778389,0.07443526391739767,0.006714453759858588,0.9864714271943896,-0.14590555481309947
1970/01/01/01:02:38.010000,3150,158,10000000,world,8.574525934826097,1.7899429492311505,-17.228056111827534,0.07443887440550208,0.006434790927764566,0.9863094192147207,-0.1470074046137759
1970/01/01/01:02:38.060000,3151,158,60000000,world,8.52652720191327,1.7804692825145285,-17.231064072579745,0.07446445407525569,0.0059904961981851225,0.9862072137876968,-0.14769729350154584
1970/01/01/01:02:38.110000,3152,158,110000000,world,8.477930758079337,1.7711904091257948,-17.233641232701245,0.0745149710549283,0.005613502838997698,0.9861639777364299,-0.14797505428153093
1970/01/01/01:02:38.160000,3153,158,160000000,world,8.428612743780338,1.7619813803300648,-17.235804380108696,0.07459232326398262,0.005403085131566058,0.9861720167019927,-0.14789031562298974
1970/01/01/01:02:38.210000,3154,158,210000000,world,8.37845742302871,1.752718304197847,-17.23763329237095,0.07469682031260678,0.005388414957775475,0.986222328607341,-0.14750209685201957
1970/01/01/01:02:38.260000,3155,158,260000000,world,8.32736280695471,1.7432897372325933,-17.23924649430996,0.07483012285108481,0.005554548831539346,0.9863059415967741,-0.14686793139508206
1970/01/01/01:02:38.310000,3156,158,310000000,world,8.275243407171432,1.7336013809231083,-17.240775940146335,0.07499528759024454,0.005866334293212535,0.9864145954004345,-0.1460395115789341
1970/01/01/01:02:38.360000,3157,158,360000000,world,8.222041406803994,1.7235793161053816,-17.242275595875757,0.07520617183545264,0.006221033454259357,0.9865413637678863,-0.14505677521445334
1970/01/01/01:02:38.410000,3158,158,410000000,world,8.1677554948673,1.713175041385503,-17.243509944753374,0.07548842126738194,0.006410876712815497,0.9866814559121659,-0.14394479314438505
1970/01/01/01:02:38.460000,3159,158,460000000,world,8.112509215239271,1.7023618640113414,-17.24446230401995,0.07579213871444129,0.006387626660185177,0.9868110047885593,-0.14289433425764236
1970/01/01/01:02:38.510000,3160,158,510000000,world,8.05674314751279,1.6911660034286766,-17.2453606672867,0.07600503746462034,0.006188826763141524,0.986858381945678,-0.14246215878911814
1970/01/01/01:02:38.560000,3161,158,560000000,world,8.00041219211049,1.679566512756215,-17.246291082591302,0.07619844587092674,0.005942268658846616,0.9868240292893046,-0.14260722810314752
1970/01/01/01:02:38.610000,3162,158,610000000,world,7.943410454340741,1.6675439222260555,-17.24708572096588,0.07640188595765067,0.005838675708689506,0.9867260092557123,-0.14317976234921914
1970/01/01/01:02:38.660000,3163,158,660000000,world,7.8857750084201195,1.6551230953591465,-17.24790223200615,0.07658090557399619,0.005858637988513937,0.9866143196216056,-0.14385140103587035
1970/01/01/01:02:38.710000,3164,158,710000000,world,7.8280299444029104,1.6424600627314547,-17.249016189969343,0.07660438448200485,0.005989881894537771,0.9866207535936097,-0.14378935347027658
1970/01/01/01:02:38.760000,3165,158,760000000,world,7.770383108522731,1.6296202340959773,-17.250619617359693,0.0765148244904782,0.00622639930906989,0.9867938710254105,-0.14263439168559974
1970/01/01/01:02:38.810000,3166,158,810000000,world,7.712830248205114,1.6166220310777573,-17.25283721322529,0.07637994076592762,0.006524855073810975,0.9870814939076293,-0.14068992607838576
1970/01/01/01:02:38.860000,3167,158,860000000,world,7.655743714264973,1.6036078281599653,-17.255818412821416,0.07613946516604504,0.006787785118106443,0.9873588972194975,-0.138849256025794
1970/01/01/01:02:38.910000,3168,158,910000000,world,7.599228022105624,1.5906353543518221,-17.259643682196106,0.0758478660724629,0.0069756960863942875,0.9875526898529225,-0.13761586260537473
1970/01/01/01:02:38.960000,3169,158,960000000,world,7.543191105307197,1.577692730285249,-17.264340955465922,0.07557751066498483,0.0070835164376058975,0.9876326804732563,-0.13718437278995477
1970/01/01/01:02:39.010000,3170,159,10000000,world,7.4875394360388405,1.564761758403331,-17.269919114738954,0.07536185021108792,0.007108571334277514,0.9875801381101073,-0.13767908540068352
1970/01/01/01:02:39.060000,3171,159,60000000,world,7.432249429376172,1.5518454210795511,-17.27628763582128,0.07519786212620662,0.007018720085242066,0.9874219162459847,-0.13890276605280538
1970/01/01/01:02:39.110000,3172,159,110000000,world,7.377744049656497,1.5390613103654691,-17.28318823438746,0.07498694087613197,0.006727119300859471,0.9872597122063164,-0.1401783336263234
1970/01/01/01:02:39.160000,3173,159,160000000,world,7.324116961854101,1.52643009734195,-17.29053113579523,0.07473581298483825,0.006406949510728509,0.9871485595380721,-0.14110716019171912
1970/01/01/01:02:39.210000,3174,159,210000000,world,7.27131505509288,1.5139319000898843,-17.297930588035282,0.07445769636641099,0.00634599395275571,0.9871148270716443,-0.14149239551253906
1970/01/01/01:02:39.260000,3175,159,260000000,world,7.219258289346436,1.5015418911274971,-17.30513753452137,0.0741691530693946,0.006552884443763873,0.9871843879534544,-0.14114878894060295
1970/01/01/01:02:39.310000,3176,159,310000000,world,7.16776082181755,1.4892036670083468,-17.31186154914129,0.07393735437481473,0.006773540642578458,0.9873566989051091,-0.14005047626631661
1970/01/01/01:02:39.360000,3177,159,360000000,world,7.116764175563721,1.4769010259381616,-17.318075741284606,0.07373654864481796,0.0068883949888682025,0.9876111478943714,-0.1383462755667446
1970/01/01/01:02:39.410000,3178,159,410000000,world,7.06652304148825,1.4647155954425142,-17.32394148138962,0.07347237886657816,0.00682886110542132,0.9878596121348381,-0.1367061187822126
1970/01/01/01:02:39.460000,3179,159,460000000,world,7.017051534936563,1.4526617124273702,-17.329529114954504,0.0731689543923762,0.0066405956004331355,0.9880454037707059,-0.13553039028491237
1970/01/01/01:02:39.510000,3180,159,510000000,world,6.968244450420367,1.4407329928625545,-17.334673505320445,0.07285159099068031,0.006495199172874654,0.9881390041130544,-0.1350250592604664
1970/01/01/01:02:39.560000,3181,159,560000000,world,6.919943615908036,1.4289410302272585,-17.33938609485636,0.0725387656556588,0.0064357770232395545,0.9881229562644519,-0.1353134566643723
1970/01/01/01:02:39.610000,3182,159,610000000,world,6.871908207940665,1.4172314465895617,-17.343778457863134,0.0722641331717998,0.006463169454972081,0.987998345606574,-0.13636492062182862
1970/01/01/01:02:39.660000,3183,159,660000000,world,6.824040440671376,1.4056246022619279,-17.347943634535405,0.07201103913023828,0.006502302210198377,0.9877972131871402,-0.13794490178716345
1970/01/01/01:02:39.710000,3184,159,710000000,world,6.7766576369316915,1.3942237587008806,-17.351852908757053,0.0716916193370864,0.006435255032602512,0.9876291664824263,-0.13931090668974733
1970/01/01/01:02:39.760000,3185,159,760000000,world,6.729799639363345,1.3830292479371866,-17.35569553132131,0.07132557061031655,0.0063143868797522614,0.987551547223825,-0.14005260822731902
1970/01/01/01:02:39.810000,3186,159,810000000,world,6.683325889400848,1.371980606795964,-17.3596791477281,0.07096451497663422,0.006200690464843965,0.9875831168154707,-0.14001848603998973
1970/01/01/01:02:39.860000,3187,159,860000000,world,6.637050632051046,1.3610017162322279,-17.363973926211774,0.07064748318699525,0.0061320000067347806,0.9877263773072593,-0.1391687294859663
1970/01/01/01:02:39.910000,3188,159,910000000,world,6.590793198139251,1.3500892307355272,-17.36871717276681,0.07039154165933455,0.006096074906020359,0.9879587307566149,-0.13764234470300638
1970/01/01/01:02:39.960000,3189,159,960000000,world,6.544592091714589,1.3394273122986613,-17.37394415212996,0.07014553681700852,0.006064977494070526,0.9882112931765386,-0.13594579710680016
1970/01/01/01:02:40.010000,3190,160,10000000,world,6.49872069541734,1.3289140517964113,-17.379441031988552,0.06983677237676858,0.00620302881625326,0.9884044209824251,-0.13468870865776827
1970/01/01/01:02:40.060000,3191,160,60000000,world,6.453202294460916,1.318467263527834,-17.38518211064004,0.06950992523014672,0.006387757127957025,0.9884974378634899,-0.1341655029830311
1970/01/01/01:02:40.110000,3192,160,110000000,world,6.407910050071462,1.3081274250425545,-17.390877560956262,0.06925076884841018,0.006341610127823371,0.9884793687985874,-0.1344345656981017
1970/01/01/01:02:40.160000,3193,160,160000000,world,6.362625847915674,1.2978698146347094,-17.39635193307984,0.0690962553636712,0.006062094484577386,0.9883577706165729,-0.135417413086414
1970/01/01/01:02:40.210000,3194,160,210000000,world,6.317215656978554,1.2877829610059146,-17.401406877896658,0.06900328477267127,0.005740573581047446,0.988153448948132,-0.13696113988082137
1970/01/01/01:02:40.260000,3195,160,260000000,world,6.27177047563981,1.2781165664966123,-17.406058168285448,0.06887788256898486,0.00545055469532087,0.9879427837990891,-0.1385466877468854
1970/01/01/01:02:40.310000,3196,160,310000000,world,6.226563617887128,1.2687645654390698,-17.41042739015592,0.06864790970429918,0.00533251392279947,0.9878153885208936,-0.1395700074866001
1970/01/01/01:02:40.360000,3197,160,360000000,world,6.181626413213652,1.2595899310264462,-17.414593890701422,0.06834802098196266,0.005456543469542244,0.9878077251334991,-0.13976649214957013
1970/01/01/01:02:40.410000,3198,160,410000000,world,6.136781727232674,1.2505270198420475,-17.418599938206047,0.06805851364213865,0.005725277880135061,0.9879161170638371,-0.13912945611741948
1970/01/01/01:02:40.460000,3199,160,460000000,world,6.091840863076444,1.2415087351865013,-17.422182484561596,0.06784738147464436,0.0059513687617430856,0.9881225732452816,-0.1377501153539222
1970/01/01/01:02:40.510000,3200,160,510000000,world,6.046718810147205,1.2324863708304337,-17.42531834517109,0.06769412765684259,0.0060593924431104635,0.9883848010778478,-0.13592745801456976
1970/01/01/01:02:40.560000,3201,160,560000000,world,6.001728249486649,1.2235162241637336,-17.428241941342026,0.06747898875701179,0.006020665732572424,0.9886047794658759,-0.13442815061472257
1970/01/01/01:02:40.610000,3202,160,610000000,world,5.956957290400286,1.2145742567277142,-17.431196710733612,0.06721721948011472,0.005865943631353698,0.9887269165355507,-0.1336657047592163
1970/01/01/01:02:40.660000,3203,160,660000000,world,5.912193625597922,1.205601195353398,-17.434296490559152,0.06698935141128227,0.005677812787918853,0.9887480376313244,-0.13363198464307197
1970/01/01/01:02:40.710000,3204,160,710000000,world,5.867201441093476,1.1965318307876838,-17.43743541481238,0.0668292564790739,0.005598956326313909,0.9886803298681421,-0.13421515375817927
1970/01/01/01:02:40.760000,3205,160,760000000,world,5.821735462238886,1.187293817608309,-17.440730554143,0.06675721952944055,0.00560628752893629,0.9885405338900425,-0.13527622125573557
1970/01/01/01:02:40.810000,3206,160,810000000,world,5.775631861465885,1.1779143734808135,-17.444341345575626,0.06676255451530626,0.0056351115472972274,0.9883586831084199,-0.1365947303399009
1970/01/01/01:02:40.860000,3207,160,860000000,world,5.729020122054684,1.1686426247055657,-17.4484335332251,0.06676324389707422,0.005620345624171305,0.988214241816772,-0.13763608992523382
1970/01/01/01:02:40.910000,3208,160,910000000,world,5.682191737546704,1.1594075847351906,-17.453149094874423,0.06670544101837438,0.0056375668737684214,0.9881842435683007,-0.13787857970560038
1970/01/01/01:02:40.960000,3209,160,960000000,world,5.635010363947217,1.150134899269168,-17.45854550128026,0.06667895845624208,0.005694129946203502,0.9882593136132567,-0.13734999978158532
1970/01/01/01:02:41.010000,3210,161,10000000,world,5.587265571983008,1.1407511487256186,-17.46464546716595,0.06674003903176438,0.00578318840358106,0.9884138248148477,-0.13619997370341455
1970/01/01/01:02:41.060000,3211,161,60000000,world,5.538776367619376,1.1311810952691776,-17.47145540100718,0.06690844744294736,0.005900581133717372,0.9886242856297465,-0.13457512647637412
1970/01/01/01:02:41.110000,3212,161,110000000,world,5.489549195907478,1.1214006313273255,-17.478993022332983,0.06713829304607596,0.006023539966096241,0.9888492342150943,-0.13279065692042324
1970/01/01/01:02:41.160000,3213,161,160000000,world,5.440067878902218,1.1115235594086241,-17.487330968082116,0.06729490975676403,0.006082720998503536,0.988990749351435,-0.13164988918859852
1970/01/01/01:02:41.210000,3214,161,210000000,world,5.390535688046971,1.101593140331585,-17.496372220322968,0.06739710050731618,0.006120072414255854,0.98900146718045,-0.131515297481959
1970/01/01/01:02:41.260000,3215,161,260000000,world,5.340874221925593,1.0915778382316301,-17.505584081918308,0.06751999945011301,0.006248275013671562,0.9888873745385367,-0.1323018110680648
1970/01/01/01:02:41.310000,3216,161,310000000,world,5.290938303712581,1.081428665301049,-17.514495302377302,0.06773702572535643,0.006208057444134132,0.9886705484035775,-0.1338047162398327
1970/01/01/01:02:41.360000,3217,161,360000000,world,5.240719384738257,1.0711305556712842,-17.522910122994002,0.06800684441196442,0.005975857693573263,0.9884019722504935,-0.13564991518348932
1970/01/01/01:02:41.410000,3218,161,410000000,world,5.190682861243517,1.0607854416480698,-17.530715040774933,0.06815269148374814,0.005808424550173392,0.9882074767600404,-0.13699436383778724
1970/01/01/01:02:41.460000,3219,161,460000000,world,5.1410012662718865,1.0504215415015141,-17.5379631835146,0.06816934910697915,0.005828381810038104,0.9881495807156542,-0.1374022413910485
1970/01/01/01:02:41.510000,3220,161,510000000,world,5.091617865746729,1.0400150832757253,-17.544689554751674,0.06812058419141434,0.006025597677160851,0.9882395154672627,-0.13676965398465837
1970/01/01/01:02:41.560000,3221,161,560000000,world,5.0424250730957745,1.029533701850706,-17.550737175554843,0.06807115358273978,0.006262133718716368,0.9884678754563166,-0.13512350987922067
1970/01/01/01:02:41.610000,3222,161,610000000,world,4.9933861115694524,1.0189684631230687,-17.55612486188872,0.0680135929968833,0.006462084426974416,0.9887888472981267,-0.132774274960758
1970/01/01/01:02:41.660000,3223,161,660000000,world,4.944856588510646,1.0084248305389776,-17.561027843023957,0.0678491782825536,0.00652631436627357,0.9890935831977881,-0.13056714710881687
1970/01/01/01:02:41.710000,3224,161,710000000,world,4.896923611038154,0.9979384379775721,-17.565568785619405,0.0676094356399944,0.006467448279638557,0.9893181450584474,-0.12898350353167098
1970/01/01/01:02:41.760000,3225,161,760000000,world,4.849495294159387,0.9875058564266966,-17.569660624424138,0.06734347456212787,0.006408553783218921,0.9894368156057872,-0.12821300556568804
1970/01/01/01:02:41.810000,3226,161,810000000,world,4.802420691046224,0.9771410225617985,-17.573361289366186,0.06708171721829533,0.006385392075715858,0.9894378839031646,-0.12834307102571563
1970/01/01/01:02:41.860000,3227,161,860000000,world,4.755473033007574,0.9668146607078588,-17.576812912049142,0.06686008653929335,0.00640016191215643,0.9893255816139312,-0.12931999195682406
1970/01/01/01:02:41.910000,3228,161,910000000,world,4.708422745697938,0.9565147354981679,-17.580157150560236,0.0667056086522831,0.006403814590217679,0.9891090726739432,-0.13104424934774742
1970/01/01/01:02:41.960000,3229,161,960000000,world,4.661198839092835,0.9462367939222788,-17.58344275140077,0.06659709297321176,0.006321274437971509,0.9888305891136417,-0.13318759225305268
1970/01/01/01:02:42.010000,3230,162,10000000,world,4.614158560752515,0.9360632056762787,-17.586900028480237,0.0664072253487445,0.006201116348063515,0.9886074359758588,-0.13493318387541747
1970/01/01/01:02:42.060000,3231,162,60000000,world,4.56740582117557,0.9259965000347877,-17.59073397060965,0.06615587759250703,0.0061006864816180745,0.9884998294889102,-0.13584648904117333
1970/01/01/01:02:42.110000,3232,162,110000000,world,4.520845078882103,0.915983897680577,-17.59508597427859,0.0659050409316246,0.006052421474292477,0.988522908943562,-0.13580262246310515
1970/01/01/01:02:42.160000,3233,162,160000000,world,4.474324174066007,0.9059588849437793,-17.600053737542517,0.06569997003512627,0.0060710864474909565,0.9886731496327453,-0.13480377977637614
1970/01/01/01:02:42.210000,3234,162,210000000,world,4.427643314707374,0.8958455412333237,-17.60569733661201,0.06557712039241856,0.006158911694306507,0.9889308407552981,-0.13295676474252463
1970/01/01/01:02:42.260000,3235,162,260000000,world,4.380732569551492,0.8856060555863998,-17.612070642494114,0.06551402167369981,0.006292291047060305,0.9892480523479583,-0.13060096080537797
1970/01/01/01:02:42.310000,3236,162,310000000,world,4.333962509073274,0.8753234770551473,-17.61926884230116,0.06539698701775841,0.006401660886772586,0.9895211379961621,-0.1285697098296109
1970/01/01/01:02:42.360000,3237,162,360000000,world,4.287449631557563,0.8650250217942784,-17.627329622301573,0.0652507079091534,0.006461696937594172,0.9896929302276648,-0.12731258950873545
1970/01/01/01:02:42.410000,3238,162,410000000,world,4.2411276409935255,0.8546999748852593,-17.636077283933624,0.06513228481597806,0.006501475431965964,0.9897446763724276,-0.12696846807100046
1970/01/01/01:02:42.460000,3239,162,460000000,world,4.194932618998142,0.8443424743677606,-17.644824258763126,0.06507408181208664,0.0065495018245745,0.9896739700762813,-0.12754568144635753
1970/01/01/01:02:42.510000,3240,162,510000000,world,4.148705623358617,0.8339216928612081,-17.65322613306441,0.0651143336202093,0.0064211276097365004,0.9894925296732378,-0.1289318672721075
1970/01/01/01:02:42.560000,3241,162,560000000,world,4.102388318733312,0.823427961185712,-17.661179798324504,0.06521113204263877,0.00612759642766279,0.9892436571336927,-0.13079353057584384
1970/01/01/01:02:42.610000,3242,162,610000000,world,4.056373754966561,0.8129630971555721,-17.668552236487823,0.06520462025892812,0.005898962538609362,0.9890426967582477,-0.1323181912173446
1970/01/01/01:02:42.660000,3243,162,660000000,world,4.010761216490313,0.8025606837429106,-17.675378093750957,0.0650990504694761,0.005839521114788941,0.9889474447483949,-0.13308255012112888
1970/01/01/01:02:42.710000,3244,162,710000000,world,3.9653829713759747,0.7922343028134647,-17.68168940319015,0.06497008251253059,0.005923027593632708,0.9889636316483943,-0.13302158245660498
1970/01/01/01:02:42.760000,3245,162,760000000,world,3.9200377239897177,0.7819818878638687,-17.687353902930624,0.06488094891107316,0.006015794885561896,0.9890816569244048,-0.1321807422280863
1970/01/01/01:02:42.810000,3246,162,810000000,world,3.8744980815368204,0.7717586407984593,-17.692387194810273,0.06486020521968491,0.0060718853800048956,0.9892830894777773,-0.13067231864513745
1970/01/01/01:02:42.860000,3247,162,860000000,world,3.828593278135003,0.7615894204352055,-17.696886670696788,0.06489639191644857,0.006080047980408711,0.9895356198190672,-0.12872741915410624
1970/01/01/01:02:42.910000,3248,162,910000000,world,3.782441477509693,0.7517149108035854,-17.700899235616834,0.06490058850679793,0.0060477832668398715,0.9897700837919658,-0.126911461891641
1970/01/01/01:02:42.960000,3249,162,960000000,world,3.736309155243774,0.7420724734634824,-17.70455416094417,0.06481382361876355,0.006050064603926809,0.9899197125480212,-0.12578365432379104
1970/01/01/01:02:43.010000,3250,163,10000000,world,3.69007523031141,0.7326543897492948,-17.70793700583618,0.0647060801700265,0.006115195127151935,0.9899731490813225,-0.1254148782066806
1970/01/01/01:02:43.060000,3251,163,60000000,world,3.6435328584627977,0.7234441979947085,-17.71119595948871,0.06463040335444589,0.006220461092891601,0.9899365375198792,-0.12573729959397964
1970/01/01/01:02:43.110000,3252,163,110000000,world,3.5964958438337566,0.7143827089191191,-17.71435614091347,0.06462160239270329,0.006316098347337275,0.9898221704823321,-0.12663422218149054
1970/01/01/01:02:43.160000,3253,163,160000000,world,3.548824034757917,0.705390603903778,-17.717200176924734,0.06471186005624832,0.00623662697383115,0.9896461393133852,-0.12796092604448286
1970/01/01/01:02:43.210000,3254,163,210000000,world,3.5003773692295335,0.6963778011192232,-17.719705381313048,0.06490012469573385,0.005956733119139636,0.9894240735061112,-0.12958585536855222
1970/01/01/01:02:43.260000,3255,163,260000000,world,3.4511901055098093,0.6872958135490267,-17.72196554372346,0.0651141239077626,0.005587077711035787,0.9891974350484117,-0.1312149759898568
1970/01/01/01:02:43.310000,3256,163,310000000,world,3.401804237157197,0.6782205309037634,-17.723956055018903,0.06517982060926979,0.005350939974865631,0.9890811208096079,-0.13206625187661913
1970/01/01/01:02:43.360000,3257,163,360000000,world,3.352434656209183,0.669154244819556,-17.7257516010044,0.06511193512308314,0.005335238922130714,0.9891212167219716,-0.13179980941039876
1970/01/01/01:02:43.410000,3258,163,410000000,world,3.3029343789787102,0.6600227297465677,-17.727484281496967,0.06501212590551023,0.005524944904964339,0.989295578847688,-0.13052645763009582
1970/01/01/01:02:43.460000,3259,163,460000000,world,3.253100686920814,0.650745101158415,-17.729224557642887,0.06495302101662041,0.00582312075719784,0.9895702039138092,-0.1284445711248394
1970/01/01/01:02:43.510000,3260,163,510000000,world,3.202925475121037,0.6412925256635776,-17.730855702484845,0.0649316776074666,0.006036440864300181,0.989893263189632,-0.1259315930041129
1970/01/01/01:02:43.560000,3261,163,560000000,world,3.152840777680452,0.6317498736565107,-17.732605482326992,0.06481783149124168,0.0061177730799450445,0.9901603709500141,-0.12386953367735616
1970/01/01/01:02:43.610000,3262,163,610000000,world,3.1030010690778522,0.6221478961069873,-17.73470636680655,0.06463239372005548,0.006086342340559192,0.9903157830390121,-0.12272025090732816
1970/01/01/01:02:43.660000,3263,163,660000000,world,3.053332148003469,0.6124738344508314,-17.73732543936014,0.06444326820582919,0.005971617116955206,0.9903440446962088,-0.12259721900073274
1970/01/01/01:02:43.710000,3264,163,710000000,world,3.0036855492626686,0.6027043913460577,-17.74058263213518,0.06430170883000576,0.005797014670920487,0.9902459644706406,-0.12346908403344187
1970/01/01/01:02:43.760000,3265,163,760000000,world,2.9538626723331975,0.592802324394838,-17.74455450907782,0.06424641450298064,0.0055837550279516125,0.9900333573250173,-0.12520052430822068
1970/01/01/01:02:43.810000,3266,163,810000000,world,2.903804949119498,0.582760524400357,-17.74930066604641,0.0642504805236749,0.00535490489538464,0.9897502311933662,-0.12742715801082713
1970/01/01/01:02:43.860000,3267,163,860000000,world,2.8539264440896477,0.572684317265282,-17.75480284581242,0.0641804924731624,0.0052049799968363975,0.9895143147765727,-0.12928725158106197
1970/01/01/01:02:43.910000,3268,163,910000000,world,2.8044097603029177,0.5626130186704934,-17.760748086497546,0.06403468513463124,0.005309770897740912,0.9893869290264994,-0.1303260146871481
1970/01/01/01:02:43.960000,3269,163,960000000,world,2.7551865799056428,0.5525220686360233,-17.76704561761929,0.06388488913546794,0.00554732601258509,0.9893853013612751,-0.13040196917423494
1970/01/01/01:02:44.010000,3270,164,10000000,world,2.7061526353046137,0.5423764322494156,-17.773341851523714,0.06380372140401756,0.005658468363592977,0.9895079725247885,-0.12950304699372592
1970/01/01/01:02:44.060000,3271,164,60000000,world,2.6571229419540763,0.5321216384733931,-17.7795037986552,0.06382038301515881,0.005591018749704976,0.989736735070177,-0.1277376000783054
1970/01/01/01:02:44.110000,3272,164,110000000,world,2.60802379157573,0.5217371217012937,-17.785560122327777,0.06388524012356438,0.005459285469191429,0.990025057054133,-0.12545620232368435
1970/01/01/01:02:44.160000,3273,164,160000000,world,2.5592508742344027,0.5113340936282613,-17.79135316092632,0.0638484293522201,0.005436336152138596,0.9902723936056101,-0.12350874779184985
1970/01/01/01:02:44.210000,3274,164,210000000,world,2.510922096389858,0.5009567899778784,-17.796869650474992,0.06371811867125882,0.005565479675251042,0.9904240131293388,-0.12234909483014121
1970/01/01/01:02:44.260000,3275,164,260000000,world,2.462946140806026,0.49059478223954694,-17.802109920918802,0.06355925172738468,0.005781064807477309,0.9904626152460937,-0.12210900298264303
1970/01/01/01:02:44.310000,3276,164,310000000,world,2.4151975235916834,0.4802262693228222,-17.806859430278585,0.06343283608262258,0.005908571028727623,0.9903866357646369,-0.12278304359201195
1970/01/01/01:02:44.360000,3277,164,360000000,world,2.36747675544139,0.46980929065924715,-17.81108920701715,0.06337328743595567,0.005889011906190105,0.9902056269830743,-0.12426569224603073
1970/01/01/01:02:44.410000,3278,164,410000000,world,2.31969940851241,0.4593279670228547,-17.814899987051025,0.06335169532013316,0.005719950036550686,0.9899606628456766,-0.12622096058021748
1970/01/01/01:02:44.460000,3279,164,460000000,world,2.272218022543779,0.4488700755467683,-17.818491862851783,0.0632432411122749,0.00544708920985795,0.9897636738351746,-0.12782210931232707
1970/01/01/01:02:44.510000,3280,164,510000000,world,2.225139046882817,0.43845613045505505,-17.82197426411037,0.063062349337526,0.00517213133462123,0.989672058850272,-0.12862972084457433
1970/01/01/01:02:44.560000,3281,164,560000000,world,2.1783914768293062,0.4280611352789482,-17.825217606289346,0.06284779883091972,0.005083578347545398,0.9897001049153332,-0.12852242506220804
1970/01/01/01:02:44.610000,3282,164,610000000,world,2.1318245651894236,0.4176415607565884,-17.82823902059204,0.06263298286538167,0.005229940249866111,0.9898452773961901,-0.1274993490133475
1970/01/01/01:02:44.660000,3283,164,660000000,world,2.0852309988011934,0.40714090309309,-17.831095560641373,0.06246122996755595,0.005531049011888786,0.9900899396188904,-0.125657923400118
1970/01/01/01:02:44.710000,3284,164,710000000,world,2.0384602604756235,0.39659873225907727,-17.8336613433858,0.062357852511145395,0.0057634069691909744,0.9903995658841511,-0.12323547081417287
1970/01/01/01:02:44.760000,3285,164,760000000,world,1.991606866441106,0.3862700247101854,-17.836005152760162,0.06225685369635933,0.00576740952661003,0.9907035115304413,-0.12081959028417152
1970/01/01/01:02:44.810000,3286,164,810000000,world,1.9449521393469489,0.37607642156621063,-17.838329075022283,0.06209192728490555,0.005595177064602793,0.9909290969313312,-0.1190496174480123
1970/01/01/01:02:44.860000,3287,164,860000000,world,1.898529244081125,0.36592273067338243,-17.840747111154496,0.06189575424501882,0.005359824657868776,0.9910447577047697,-0.11819676861899156
1970/01/01/01:02:44.910000,3288,164,910000000,world,1.8521768439219417,0.35580058929117325,-17.843135615849583,0.06171849923053275,0.0052159265501119665,0.9910498411857933,-0.11825325893423952
1970/01/01/01:02:44.960000,3289,164,960000000,world,1.8056502053721253,0.3456815061524943,-17.8456293931032,0.06160278957529556,0.005140545509010731,0.9909567604314082,-0.11909395477395142
1970/01/01/01:02:45.010000,3290,165,10000000,world,1.7588526281165218,0.33555051733298225,-17.848420358060306,0.06152689780930391,0.005101680318024134,0.9908060767182253,-0.12038161006621557
1970/01/01/01:02:45.060000,3291,165,60000000,world,1.7121457409792693,0.32548864442781494,-17.85171644539653,0.061372198817780485,0.005103087383927601,0.9907039474039854,-0.12129756926494599
1970/01/01/01:02:45.110000,3292,165,110000000,world,1.665658180995824,0.31551017380098556,-17.85556120261139,0.0611705172242107,0.0051059202923047255,0.9907029822396535,-0.12140715951684278
1970/01/01/01:02:45.160000,3293,165,160000000,world,1.6193475018237726,0.3055849663089518,-17.85970997297751,0.06099768675025992,0.004981306966534898,0.9908150219656893,-0.12058217546201745
1970/01/01/01:02:45.210000,3294,165,210000000,world,1.5730714461878814,0.2956614593591771,-17.864230708687966,0.06088091275919537,0.004800942370447974,0.9910342743274223,-0.11883405455626934
1970/01/01/01:02:45.260000,3295,165,260000000,world,1.526641557696517,0.2856806227027692,-17.86913122935803,0.060837754692445276,0.004692780155393094,0.9913401320108607,-0.11628193360571702
1970/01/01/01:02:45.310000,3296,165,310000000,world,1.4799346454089828,0.27568383197609486,-17.874152663317634,0.060846077284711315,0.004804112596617231,0.9916965259556724,-0.11319309072850833
1970/01/01/01:02:45.360000,3297,165,360000000,world,1.4330534647151723,0.26591917905714735,-17.87942471706708,0.06083494010896169,0.0049775097123049145,0.9920374619399948,-0.11016355371290625
1970/01/01/01:02:45.410000,3298,165,410000000,world,1.3863064537152017,0.25629729525811695,-17.885043119834364,0.06075555640095701,0.005120651582241161,0.9922972787309037,-0.10783622729410787
1970/01/01/01:02:45.460000,3299,165,460000000,world,1.3397778756357672,0.24672694550707888,-17.890751238835875,0.06067095559545336,0.005048198088470906,0.9924504230300285,-0.1064692851047255
1970/01/01/01:02:45.510000,3300,165,510000000,world,1.293313433738596,0.23720544386079515,-17.896358191814056,0.06064176741549154,0.00477014204336914,0.9924993267346854,-0.10604201158412552
1970/01/01/01:02:45.560000,3301,165,560000000,world,1.2467170146143183,0.2277209356996918,-17.90158412999892,0.060677922832098316,0.0045239924558474354,0.9924556135561292,-0.10644049179691266
1970/01/01/01:02:45.610000,3302,165,610000000,world,1.1999178221735765,0.21826737246924677,-17.90640547413127,0.06073164742040018,0.00440580415822101,0.9923568713083694,-0.10733170947296088
1970/01/01/01:02:45.660000,3303,165,660000000,world,1.153287307579864,0.2089191170220355,-17.91096906949299,0.060679422863598,0.004381004613268961,0.992299526478747,-0.10789098289279668
1970/01/01/01:02:45.710000,3304,165,710000000,world,1.1069653424617976,0.19968885184862595,-17.915233061828925,0.06055575881622842,0.004321233223675316,0.9923307583848697,-0.10767540564551671
1970/01/01/01:02:45.760000,3305,165,760000000,world,1.060872630608304,0.1905405803542128,-17.91925674561935,0.06042141088199461,0.004195454536999965,0.9924598533790326,-0.10656026791973715
1970/01/01/01:02:45.810000,3306,165,810000000,world,1.0148579651111895,0.18142526826140892,-17.92317712643957,0.06031601319164436,0.0040260278137240185,0.9926805603823811,-0.10455177995438722
1970/01/01/01:02:45.860000,3307,165,860000000,world,0.9687237235360714,0.17228767761618718,-17.92706977989049,0.06026706025575975,0.00389780826344561,0.9929736477405481,-0.10176454899276029
1970/01/01/01:02:45.910000,3308,165,910000000,world,0.9222793436852745,0.1630789011899059,-17.930753350160817,0.06027917035250983,0.003989023726125294,0.9933140154523633,-0.09837568814106304
1970/01/01/01:02:45.960000,3309,165,960000000,world,0.8754794055747198,0.15378596958258903,-17.934234757007893,0.06030539236159419,0.004310763549528767,0.9936638886699802,-0.0947457298403861
1970/01/01/01:02:46.010000,3310,166,10000000,world,0.82874490402819,0.14449614435176317,-17.937640786534992,0.06022421788284529,0.004699550749046064,0.9939510853075825,-0.09171803431733523
1970/01/01/01:02:46.060000,3311,166,60000000,world,0.7822273674477886,0.1352478928382242,-17.940851282053828,0.060083317297515856,0.004931520299089754,0.9941439653026594,-0.0896852905574286
1970/01/01/01:02:46.110000,3312,166,110000000,world,0.7357321659554796,0.1260178952229642,-17.94386560440235,0.0599772571146401,0.004951951315152752,0.9942478818589063,-0.08859659263343647
1970/01/01/01:02:46.160000,3313,166,160000000,world,0.6890021014824216,0.11677079538587674,-17.946757980215395,0.059955917350258174,0.004774748055298174,0.9942764157408988,-0.08830005015360436
1970/01/01/01:02:46.210000,3314,166,210000000,world,0.6418576536191969,0.10756182599488773,-17.949638667445086,0.06001543695026779,0.0044160571348764175,0.9942525084871667,-0.0885471350977921
1970/01/01/01:02:46.260000,3315,166,260000000,world,0.5944326649329984,0.09864133387373691,-17.95256602426471,0.06006834252424255,0.003936030161521031,0.9942313415569574,-0.08877128679258091
1970/01/01/01:02:46.310000,3316,166,310000000,world,0.5470750979932072,0.08990951915400595,-17.955355180777747,0.0600225438271045,0.0036457461406646965,0.9942713772525174,-0.08836532772520786
1970/01/01/01:02:46.360000,3317,166,360000000,world,0.4998540236855748,0.08125945674439145,-17.95799268185274,0.05990409233589042,0.0036442670944984877,0.9943912078786875,-0.08708814346581302
1970/01/01/01:02:46.410000,3318,166,410000000,world,0.45261108113807025,0.07268047469244188,-17.960544979493612,0.059787562928937936,0.003820690498447454,0.9945804730591319,-0.08497371506887798
1970/01/01/01:02:46.460000,3319,166,460000000,world,0.4051553372141549,0.06415811009477046,-17.962879914849815,0.059733126618202584,0.003966615618844809,0.994820252846388,-0.08215159202106087
1970/01/01/01:02:46.510000,3320,166,510000000,world,0.3572762692895865,0.055657319937717484,-17.96501392023559,0.05976310602843974,0.004013531322529539,0.9950901445212632,-0.07879001840847448
1970/01/01/01:02:46.560000,3321,166,560000000,world,0.3088347358428962,0.04723175969461603,-17.96709442717639,0.05985783541857369,0.003943150386239383,0.9953660889409303,-0.07515211301401174
1970/01/01/01:02:46.610000,3322,166,610000000,world,0.2599176918411021,0.039208901235773565,-17.96924212411454,0.0599512025618925,0.003728166888365877,0.9956128725423014,-0.07174233137487582
1970/01/01/01:02:46.660000,3323,166,660000000,world,0.21054892934244354,0.031748261326386855,-17.971302920884284,0.060037573825738204,0.0035338752004092423,0.9958129030586995,-0.0688452144814169
1970/01/01/01:02:46.710000,3324,166,710000000,world,0.16065423884679655,0.02486052421795423,-17.973265192167737,0.060135436339043315,0.0034331766289012453,0.9959633426079132,-0.06655045285961685
1970/01/01/01:02:46.760000,3325,166,760000000,world,0.110130241222818,0.018502530211740188,-17.975204982090922,0.06026151551080908,0.0034376728340436294,0.9960670871956909,-0.06486208414257663
1970/01/01/01:02:46.810000,3326,166,810000000,world,0.05885816361127386,0.012592073789509441,-17.97721338896212,0.06043168932845412,0.0035360917864882234,0.9961300100642766,-0.06372213139193646
1970/01/01/01:02:46.860000,3327,166,860000000,world,0.0067313057230190335,0.007031469352338428,-17.979278833941677,0.060661982282319955,0.0036421539684690623,0.9961591778091432,-0.06303769575945134
1970/01/01/01:02:46.910000,3328,166,910000000,world,-0.04631882827924636,0.0017274356471754788,-17.981169557446524,0.06096468451044945,0.0035738998725267633,0.9961619691567902,-0.06270459064461519
1970/01/01/01:02:46.960000,3329,166,960000000,world,-0.10029623018844795,-0.0033146124485404866,-17.982863178217144,0.06131004034147148,0.003279465104190585,0.9961521085446358,-0.06254039257978357
1970/01/01/01:02:47.010000,3330,167,10000000,world,-0.15499082066418277,-0.007817373544960338,-17.98445611961175,0.06162368580650487,0.0027967765404432487,0.996160332411177,-0.062123196304258416
1970/01/01/01:02:47.060000,3331,167,60000000,world,-0.21029945395729294,-0.011685081951791309,-17.98583547711361,0.061902509089217524,0.0023346835357236527,0.9961975282720162,-0.06126265816933619
1970/01/01/01:02:47.110000,3332,167,110000000,world,-0.26628800741256725,-0.015022562239800547,-17.987011741902524,0.062180729959452286,0.0020119759043774723,0.9962582569227225,-0.059991618480988176
1970/01/01/01:02:47.160000,3333,167,160000000,world,-0.3230512875325242,-0.017966016329958333,-17.98803085282791,0.062480021036594766,0.0018861259272809911,0.9963349203281174,-0.058390204957826694
1970/01/01/01:02:47.210000,3334,167,210000000,world,-0.3806749769250026,-0.02064025779868166,-17.988928895666742,0.0628092590241757,0.001978362713524741,0.9964207213938824,-0.056540507945214
1970/01/01/01:02:47.260000,3335,167,260000000,world,-0.43923336474285635,-0.023152600787330394,-17.989750671327535,0.06317799219037126,0.002185360537747587,0.9965100482687761,-0.054511367635338814
1970/01/01/01:02:47.310000,3336,167,310000000,world,-0.49874688026972985,-0.02558819676091143,-17.99021701204615,0.06359342255840514,0.0023213908591765975,0.9965988287528381,-0.05235706523725735
1970/01/01/01:02:47.360000,3337,167,360000000,world,-0.5592497592522745,-0.028016134615213902,-17.990266331497843,0.0640458372635239,0.0023288191615753124,0.9966844147103447,-0.05012868244852088
1970/01/01/01:02:47.410000,3338,167,410000000,world,-0.6207840471658064,-0.030490052115887442,-17.989992357337588,0.06452576987474172,0.002212761544825382,0.9967647277906656,-0.04787072321176986
1970/01/01/01:02:47.460000,3339,167,460000000,world,-0.6833881077565616,-0.03304929548732867,-17.989536381315638,0.0650285391297225,0.001994885685920526,0.9968380800132162,-0.04561964231906135
1970/01/01/01:02:47.510000,3340,167,510000000,world,-0.7470856362627998,-0.03572026224848106,-17.988987599307897,0.06555148230757941,0.0017553727367465874,0.996903046383273,-0.04340780973032558
1970/01/01/01:02:47.560000,3341,167,560000000,world,-0.8118653953022771,-0.038516878583791075,-17.98821302924631,0.06608640245689679,0.0016705906082119264,0.9969587906790532,-0.04126701134180488
1970/01/01/01:02:47.610000,3342,167,610000000,world,-0.877731499682897,-0.04144595018470228,-17.98723803775673,0.0666264043742413,0.0017794723662108462,0.997005479836996,-0.03921516152279885
1970/01/01/01:02:47.660000,3343,167,660000000,world,-0.9446910481001668,-0.04450823685157219,-17.986140283014485,0.0671740872685204,0.0019932269434960615,0.9970433927866217,-0.03725777699401272
1970/01/01/01:02:47.710000,3344,167,710000000,world,-1.012721815592943,-0.04769871041154545,-17.98479652777726,0.06773589188744182,0.002120896024756993,0.9970731508310917,-0.03539043150378237
1970/01/01/01:02:47.760000,3345,167,760000000,world,-1.0818180750380213,-0.05101004121611455,-17.983227872571053,0.06830906980907323,0.002100825753196619,0.997095554747429,-0.033614166892704314
1970/01/01/01:02:47.810000,3346,167,810000000,world,-1.1519809703380521,-0.054432518257442726,-17.98152330529473,0.0688923427465174,0.0019303942961758443,0.9971110698290901,-0.031931694490661834
1970/01/01/01:02:47.860000,3347,167,860000000,world,-1.2232018434623007,-0.05795407498921069,-17.979713694033236,0.06948579095999123,0.0016820405449707553,0.9971197660431721,-0.030349098179011776
1970/01/01/01:02:47.910000,3348,167,910000000,world,-1.2953558346164307,-0.06146802815626148,-17.97759956287643,0.07005420934809008,0.0015029165810537125,0.997121067111153,-0.028978035086599182
1970/01/01/01:02:47.960000,3349,167,960000000,world,-1.3680717901882513,-0.06456632372522611,-17.975212642734313,0.07050423098232507,0.0013273282280158376,0.9971164699606871,-0.02803813379139014
1970/01/01/01:02:48.010000,3350,168,10000000,world,-1.4409596364494108,-0.06699152532062246,-17.972756843925794,0.07079657071137019,0.0011303784696707312,0.9971246457442187,-0.02700016054566771
1970/01/01/01:02:48.060000,3351,168,60000000,world,-1.5135358395992877,-0.06889221060324537,-17.970488368480066,0.07088898848521055,0.001002914462392416,0.9971630692355031,-0.025289500330291467
1970/01/01/01:02:48.110000,3352,168,110000000,world,-1.5853946466994449,-0.07025415361829872,-17.96865075973726,0.07078686170273572,0.0009116663773665291,0.9972237923600484,-0.02308889399120332
1970/01/01/01:02:48.160000,3353,168,160000000,world,-1.6562126134393345,-0.07130122544448816,-17.967450952122867,0.07052911070987256,0.0008718419527745108,0.9972882744116135,-0.020999575119282014
1970/01/01/01:02:48.210000,3354,168,210000000,world,-1.725953166300338,-0.07216507365477776,-17.967028781721528,0.07020668996134488,0.0008595100282496415,0.997343231021192,-0.019410344236833205
1970/01/01/01:02:48.260000,3355,168,260000000,world,-1.7946846181169305,-0.07283292509928228,-17.967372009588455,0.06988886787293366,0.0007622341068831361,0.9973817043673432,-0.0185661234483653
1970/01/01/01:02:48.310000,3356,168,310000000,world,-1.8623571938452053,-0.07331529658337257,-17.96818061082052,0.06957831860145505,0.0004353512071353328,0.9974052823415096,-0.01847622275181496
1970/01/01/01:02:48.360000,3357,168,360000000,world,-1.9287530771532952,-0.07374412176867512,-17.9693624101025,0.06921595347353925,0.00011529873253401643,0.9974289012863126,-0.018566781350862354
1970/01/01/01:02:48.410000,3358,168,410000000,world,-1.9937919145395924,-0.07415786196181941,-17.970701333916214,0.06881155700402598,2.372853756607887e-05,0.9974566313630286,-0.01858057075435519
1970/01/01/01:02:48.460000,3359,168,460000000,world,-2.057533205276147,-0.07453031917426761,-17.972066701398422,0.06839379175683487,0.00013448578428952666,0.9974902680636357,-0.01831491962943734
1970/01/01/01:02:48.510000,3360,168,510000000,world,-2.120000002954,-0.07484956073629699,-17.973238767862746,0.06796786749892134,0.0002420268912385156,0.9975346345404659,-0.01746319852869108
1970/01/01/01:02:48.560000,3361,168,560000000,world,-2.181203990692059,-0.07513009975383504,-17.974215226523,0.06752018178547708,0.00026813322420255506,0.9975905320297789,-0.01593999876954434
1970/01/01/01:02:48.610000,3362,168,610000000,world,-2.2411160581385796,-0.07541652164835858,-17.975113264650624,0.06703315465130974,0.00017341183906154333,0.9976479394309063,-0.014321838397857526
1970/01/01/01:02:48.660000,3363,168,660000000,world,-2.299742378704459,-0.0757238013428945,-17.975998352973118,0.06651449036706462,1.5074505195064801e-06,0.9977028843133373,-0.012836557240353813
1970/01/01/01:02:48.710000,3364,168,710000000,world,-2.3571069168366146,-0.07603672257809267,-17.97672670800963,0.06597696488287436,-0.00010176134972929467,0.9977527651135505,-0.011681158236048152
1970/01/01/01:02:48.760000,3365,168,760000000,world,-2.4132494624395537,-0.07634416948220676,-17.977332698131054,0.06542137634679514,-0.00010573347027814554,0.9977953620675637,-0.011155616244004603
1970/01/01/01:02:48.810000,3366,168,810000000,world,-2.4682057226657377,-0.07664233870172853,-17.977914963251774,0.06484854136644756,-7.189446793049946e-05,0.9978306350558738,-0.01134395247791427
1970/01/01/01:02:48.860000,3367,168,860000000,world,-2.521973778450753,-0.07693956361528083,-17.978415411085113,0.06425815605447492,-0.00011089034892854386,0.9978650092168099,-0.011674778993412165
1970/01/01/01:02:48.910000,3368,168,910000000,world,-2.57457974330945,-0.0772410218840499,-17.978901031008746,0.06365278723696098,-0.0002579097529097774,0.9979007563575021,-0.011930491215817038
1970/01/01/01:02:48.960000,3369,168,960000000,world,-2.626062503798925,-0.07754528936173985,-17.979442662407486,0.06303883964399055,-0.00045177212602556837,0.9979397264825431,-0.011924886005008526
1970/01/01/01:02:49.010000,3370,169,10000000,world,-2.6765001216265456,-0.07784670038385509,-17.979920789744256,0.062438501179688154,-0.000519539520293832,0.9979830750384775,-0.011443145802866289
1970/01/01/01:02:49.060000,3371,169,60000000,world,-2.7261975092525876,-0.07814381228556709,-17.980343593920647,0.0619108947822057,-0.00041479315024677807,0.9980265284552217,-0.010484157263583371
1970/01/01/01:02:49.110000,3372,169,110000000,world,-2.7752905302993542,-0.07844835942107724,-17.98078009618772,0.06143277650930133,-0.00020232444121633347,0.9980694867327441,-0.009125387017283857
1970/01/01/01:02:49.160000,3373,169,160000000,world,-2.8235689582579315,-0.07874009743196984,-17.98116411106828,0.06092127916935851,-8.351978125701028e-05,0.9981116906349039,-0.007851355726829623
1970/01/01/01:02:49.210000,3374,169,210000000,world,-2.871070522730263,-0.07901062882962359,-17.9815427584519,0.06040145768253995,-0.00012768008984956225,0.9981498399094122,-0.006967402416528379
1970/01/01/01:02:49.260000,3375,169,260000000,world,-2.9179292519810938,-0.07923943190623042,-17.981977994980323,0.059905777903091935,-0.00029284132457343156,0.9981816259296643,-0.006682340472892502
1970/01/01/01:02:49.310000,3376,169,310000000,world,-2.9642851077982484,-0.07937646372950057,-17.982347959084148,0.05945747245901769,-0.0004315297088326476,0.9982052123591507,-0.007139801812257828
1970/01/01/01:02:49.360000,3377,169,360000000,world,-3.0103230373420735,-0.07937683538066255,-17.982675355267347,0.05906715464924225,-0.0004962575888551235,0.998219812992176,-0.008248025212935361
1970/01/01/01:02:49.410000,3378,169,410000000,world,-3.0559723486430377,-0.07903138003211724,-17.98312291555777,0.05867086204590727,-0.0005362532066754643,0.9982310352127347,-0.009604307231675378
1970/01/01/01:02:49.460000,3379,169,460000000,world,-3.101087098297713,-0.07847429252118923,-17.983897213478702,0.05823157058148884,-0.0004940148853722542,0.9982459460044242,-0.010671055366651465
1970/01/01/01:02:49.510000,3380,169,510000000,world,-3.1457006339686497,-0.0777965553449766,-17.985082830229075,0.05778815592282825,-0.00041422366467400976,0.9982667299764701,-0.011130735639642127
1970/01/01/01:02:49.560000,3381,169,560000000,world,-3.1899091636870476,-0.0770050109765686,-17.986510135890466,0.05738171537592547,-0.0004532185235975194,0.998293723537635,-0.010806242587033237
1970/01/01/01:02:49.610000,3382,169,610000000,world,-3.233926277100018,-0.07615575080351619,-17.988201884501272,0.05704875456604444,-0.0005129173353427376,0.9983241897880486,-0.009694771905852124
1970/01/01/01:02:49.660000,3383,169,660000000,world,-3.2778032229350114,-0.07525067368209226,-17.98999920836247,0.05676110262595958,-0.00041411247812485824,0.9983555977567413,-0.00800663270796639
1970/01/01/01:02:49.710000,3384,169,710000000,world,-3.3212242846109055,-0.07430613404109164,-17.99184750047252,0.05641493819448436,-0.0001954245321869083,0.9983865413698865,-0.00645217554321655
1970/01/01/01:02:49.760000,3385,169,760000000,world,-3.364118592522816,-0.07333949392689534,-17.99355216834839,0.05603602780503826,-6.188903042741843e-05,0.9984139796560065,-0.0054300078302047744
1970/01/01/01:02:49.810000,3386,169,810000000,world,-3.4066142584932764,-0.07235707022318412,-17.99510902061895,0.05567191711713167,-8.940742007828227e-05,0.9984360608587018,-0.005105098214058561
1970/01/01/01:02:49.860000,3387,169,860000000,world,-3.448901764841738,-0.0713652279276898,-17.99660066433621,0.0553569168550578,-0.0002264744330804977,0.9984512500428526,-0.0055373056171806965
1970/01/01/01:02:49.910000,3388,169,910000000,world,-3.4911982258083905,-0.07036720475870159,-17.99795680741367,0.055118775918982975,-0.0003257098648952255,0.998457347990552,-0.006688699271948862
1970/01/01/01:02:49.960000,3389,169,960000000,world,-3.5336155231570285,-0.06936967661112091,-17.999234004712562,0.05492984708671725,-0.00032468155641717693,0.9984558444753651,-0.008278472920922214
1970/01/01/01:02:50.010000,3390,170,10000000,world,-3.5758373617237833,-0.06838575277946375,-18.000527446186403,0.05467725961107367,-0.00022999289127529978,0.9984584578262304,-0.009542137075036289
1970/01/01/01:02:50.060000,3391,170,60000000,world,-3.6177822727353153,-0.06743599999893186,-18.001719111478543,0.054387892890081814,-0.00018101062116194873,0.9984690024104892,-0.010078470495783792
1970/01/01/01:02:50.110000,3392,170,110000000,world,-3.659667576011043,-0.06652862493028315,-18.002820201965804,0.05413892871467687,-0.00022944727840234512,0.9984844958298593,-0.009881059607416129
1970/01/01/01:02:50.160000,3393,170,160000000,world,-3.7017673412902514,-0.0656717650840901,-18.003882119070603,0.05397538244186836,-0.0003208413539743503,0.9985011289936995,-0.009058175831100513
1970/01/01/01:02:50.210000,3394,170,210000000,world,-3.7443206032375502,-0.0648733115495218,-18.004786632365494,0.05391274874715805,-0.00029937662504206424,0.9985155560852378,-0.007746621970295703
1970/01/01/01:02:50.260000,3395,170,260000000,world,-3.787475154332216,-0.06406121169740042,-18.005570186907292,0.05392533945340488,-0.0001526277482741505,0.9985259372763912,-0.006163364009208207
1970/01/01/01:02:50.310000,3396,170,310000000,world,-3.8310492223115404,-0.0630141916678059,-18.00633047759535,0.05391917772667793,-2.4093587788155704e-05,0.9985335816087192,-0.0048381910298413424
1970/01/01/01:02:50.360000,3397,170,360000000,world,-3.874772543156832,-0.06184984208822631,-18.00702280082389,0.05384665879148006,-2.424593194993166e-05,0.9985400623559129,-0.004275584097946257
1970/01/01/01:02:50.410000,3398,170,410000000,world,-3.9188101036813223,-0.06058836284652109,-18.007802176558506,0.05378936622046939,-0.0001363132956767887,0.998542386531496,-0.004448348038351015
1970/01/01/01:02:50.460000,3399,170,460000000,world,-3.963396891218009,-0.05923448849902948,-18.008786891721073,0.05380058096037397,-0.0002830203297629881,0.9985380626395839,-0.005211031357195857
1970/01/01/01:02:50.510000,3400,170,510000000,world,-4.008719312281392,-0.0578053175167199,-18.009887401557503,0.05389833223312747,-0.0003266441519632067,0.9985257165400636,-0.006423121845167316
1970/01/01/01:02:50.560000,3401,170,560000000,world,-4.054944322614978,-0.05632266479358049,-18.01113423337522,0.05408255745985411,-0.00033363593208497034,0.9985047721324767,-0.007948942969818481
1970/01/01/01:02:50.610000,3402,170,610000000,world,-4.102019047790142,-0.05480834332669127,-18.012358942202606,0.05429656902871447,-0.00048002239801897686,0.9984797472687101,-0.00947873749084184
1970/01/01/01:02:50.660000,3403,170,660000000,world,-4.14939653719039,-0.05328218807893918,-18.013522185699248,0.054390983649092256,-0.0007214711717175662,0.9984672042482028,-0.010214813645401114
1970/01/01/01:02:50.710000,3404,170,710000000,world,-4.196837782870306,-0.05176732971327559,-18.01447651228464,0.054387041275562036,-0.0008557823345058031,0.9984712316379531,-0.009824305027599784
1970/01/01/01:02:50.760000,3405,170,760000000,world,-4.24448084680172,-0.05028608151821629,-18.01522310338603,0.054376232609605474,-0.0008128806260780167,0.998484610200529,-0.008428982439851919
1970/01/01/01:02:50.810000,3406,170,810000000,world,-4.29237498124803,-0.04885714830383727,-18.01585635651667,0.0543621084908551,-0.0005939275006702101,0.9985004411954544,-0.006424744589103173
1970/01/01/01:02:50.860000,3407,170,860000000,world,-4.34009055366059,-0.04749420662918502,-18.016488504092635,0.05423507284558711,-0.0003033631783560618,0.9985170375432784,-0.004710687849029818
1970/01/01/01:02:50.910000,3408,170,910000000,world,-4.387454358517981,-0.04620127102524181,-18.016988508024784,0.05402605826237111,-0.00012592410831830067,0.998532415111281,-0.0037663170050202016
1970/01/01/01:02:50.960000,3409,170,960000000,world,-4.434545136209487,-0.04497441874218263,-18.017369793555794,0.05379957603680276,-0.0001268076100938443,0.9985447713447491,-0.0037321787407953765
1970/01/01/01:02:51.010000,3410,171,10000000,world,-4.48152475993394,-0.04380563786125111,-18.017715984339947,0.05360232714779927,-0.00031727312452882727,0.9985516852037081,-0.004606716720105098
1970/01/01/01:02:51.060000,3411,171,60000000,world,-4.528604974883608,-0.042688447956432875,-18.018064994281982,0.053471107499593565,-0.0006316986826620177,0.9985494274506462,-0.0062835147431969255
1970/01/01/01:02:51.110000,3412,171,110000000,world,-4.575837642161653,-0.041618526047598414,-18.01825443436659,0.053377479823199375,-0.0008917318806642457,0.9985384266129937,-0.008429711692805748
1970/01/01/01:02:51.160000,3413,171,160000000,world,-4.622833559207336,-0.040592395114226,-18.018337863935052,0.05319476747167238,-0.000994768527901646,0.998531467207682,-0.01020961043744111
1970/01/01/01:02:51.210000,3414,171,210000000,world,-4.669476566173541,-0.03961480876316378,-18.018421271292244,0.05294412197455168,-0.0009047682180766365,0.9985345316540526,-0.011175439017650213
1970/01/01/01:02:51.260000,3415,171,260000000,world,-4.715859943067167,-0.03869400756126321,-18.0185510648159,0.052688499235329186,-0.0006746802094572098,0.99854803374291,-0.0111933535239555
1970/01/01/01:02:51.310000,3416,171,310000000,world,-4.76211803963471,-0.037838876086096436,-18.018556418836603,0.05247196648875886,-0.00046571058315964474,0.9985696307247319,-0.01025516653827679
1970/01/01/01:02:51.360000,3417,171,360000000,world,-4.808456286794166,-0.037057906378071145,-18.01843364247133,0.0523233381422187,-0.0003423562698732711,0.9985942604068103,-0.008464878050803478
1970/01/01/01:02:51.410000,3418,171,410000000,world,-4.85495597715405,-0.036353630579978057,-18.01827554512537,0.05221268940375612,-0.0003357126436084299,0.998616910199055,-0.006163523889802596
1970/01/01/01:02:51.460000,3419,171,460000000,world,-4.901238662689111,-0.035712199661300424,-18.018188350017507,0.05201961893637502,-0.0004347636117653333,0.9986371652910582,-0.004193128397271849
1970/01/01/01:02:51.510000,3420,171,510000000,world,-4.947166386998328,-0.035120391430912445,-18.01803421263038,0.05176638284574083,-0.0005018383852242405,0.9986545482283324,-0.0030138128953790208
1970/01/01/01:02:51.560000,3421,171,560000000,world,-4.992831251625581,-0.03456881861680778,-18.01783040643964,0.05150896132805108,-0.00048765970427432504,0.9986685858317164,-0.0027649165987332826
1970/01/01/01:02:51.610000,3422,171,610000000,world,-5.038401589541086,-0.03404969723882071,-18.017719927496877,0.05128760217585232,-0.00040865260425974154,0.9986778768264425,-0.003451550887568725
1970/01/01/01:02:51.660000,3423,171,660000000,world,-5.084093773423924,-0.03355723395142284,-18.017800258486037,0.05113746594836807,-0.0003379489225090529,0.9986792088355999,-0.004968219641427299
1970/01/01/01:02:51.710000,3424,171,710000000,world,-5.129967581312522,-0.03308777059715378,-18.017949535285137,0.051033335885370755,-0.00042352400115217763,0.9986725414182525,-0.006969524592127874
1970/01/01/01:02:51.760000,3425,171,760000000,world,-5.1756409595589385,-0.032640595995955805,-18.01822125502693,0.05085229677270861,-0.000659621170007555,0.9986687717257435,-0.008619349897018867
1970/01/01/01:02:51.810000,3426,171,810000000,world,-5.221022299197558,-0.032222035715950524,-18.01866612486211,0.05062434888899988,-0.0009390207668157026,0.9986721106364053,-0.009503103524217146
1970/01/01/01:02:51.860000,3427,171,860000000,world,-5.266307601055738,-0.03184139124830378,-18.019092525761742,0.05043575556210485,-0.0010649539439506809,0.998680259331849,-0.00963535442253169
1970/01/01/01:02:51.910000,3428,171,910000000,world,-5.311763061930306,-0.031507691736378844,-18.019479250802565,0.05033053845988461,-0.0009877933980810625,0.9986903742112166,-0.009132229760608833
1970/01/01/01:02:51.960000,3429,171,960000000,world,-5.357643624937813,-0.03122853223231508,-18.019878613160635,0.0503253289181264,-0.0007899613198637718,0.9986995346717907,-0.008122602830614774
1970/01/01/01:02:52.010000,3430,172,10000000,world,-5.404152815404117,-0.031009553781107684,-18.0201648700193,0.05042173961925921,-0.0006539296446126929,0.9987051500813828,-0.006726347501428409
1970/01/01/01:02:52.060000,3431,172,60000000,world,-5.45147176309651,-0.030853741036144015,-18.020362319374907,0.050609029359141716,-0.0006385545572379145,0.998705546140558,-0.005054750586612461
1970/01/01/01:02:52.110000,3432,172,110000000,world,-5.499587522761997,-0.03075739116788361,-18.020546934665955,0.0508254917074393,-0.0006971587733180682,0.9987015457212572,-0.0033920401403451433
1970/01/01/01:02:52.160000,3433,172,160000000,world,-5.548013541368776,-0.030746601790441197,-18.02065235971718,0.050938737276840444,-0.0006844106429044133,0.9986984904723794,-0.002470173051356277
1970/01/01/01:02:52.210000,3434,172,210000000,world,-5.596695793070206,-0.030962812594778722,-18.020721444402728,0.05100237441631947,-0.0005163188055808077,0.9986953942777569,-0.002449625927405784
